,Unnamed: 0,Sort ,State,FIPS ,County ,CountySeat(s) ,Population(2010),LandAreakm2 ,LandAreami2 ,WaterAreakm2 ,WaterAreami2 ,TotalAreakm2 ,TotalAreami2 ,Latitude ,Longitude,Hover,NEVER MASK,max_risk
0,0,1,AL,01001,Autauga,Prattville,54571,1539.582,594.436,25.776,9.952,1565.358,604.388,32.536382,-86.64449,"Autauga<br>Every 10,000 People 530.0 Not using Mask<br>Max of 14.0 People can get Infected",530.0,14.0
1,1,2,AL,01003,Baldwin,Bay Minette,182265,4117.522,1589.7839999999999,"1,133.190",437.527,5250.7119999999995,2027.3110000000001,30.659218,-87.74606700000001,"Baldwin<br>Every 10,000 People 830.0 Not using Mask<br>Max of 41.0 People can get Infected",830.0,41.0
2,2,3,AL,01005,Barbour,Clayton,27457,2291.819,884.8760000000001,50.865,19.639,2342.6839999999997,904.515,31.87067,-85.405456,"Barbour<br>Every 10,000 People 670.0 Not using Mask<br>Max of 8.0 People can get Infected",670.0,8.0
3,3,4,AL,01007,Bibb,Centreville,22915,1612.481,622.582,9.289,3.587,1621.77,626.169,33.015893,-87.12714799999999,"Bibb<br>Every 10,000 People 200.0 Not using Mask<br>Max of 9.0 People can get Infected",200.0,9.0
4,4,5,AL,01009,Blount,Oneonta,57322,1669.9620000000002,644.776,15.157,5.852,1685.119,650.628,33.977447999999995,-86.567246,"Blount<br>Every 10,000 People 530.0 Not using Mask<br>Max of 58.0 People can get Infected",530.0,58.0
5,5,6,AL,01011,Bullock,Union Springs,10914,1613.057,622.805,6.057,2.338,1619.1129999999998,625.143,32.101759,-85.717261,"Bullock<br>Every 10,000 People 310.0 Not using Mask<br>Max of 0.0 People can get Infected",310.0,0.0
6,6,7,AL,01013,Butler,Greenville,20947,2011.977,776.829,2.727,1.053,2014.704,777.882,31.751666999999998,-86.681969,"Butler<br>Every 10,000 People 1020.0 Not using Mask<br>Max of 11.0 People can get Infected",1020.0,11.0
7,7,8,AL,01015,Calhoun,Anniston,118572,1569.19,605.868,16.624,6.419,1585.8139999999999,612.2869999999999,33.771706,-85.822513,"Calhoun<br>Every 10,000 People 1520.0 Not using Mask<br>Max of 161.0 People can get Infected",1520.0,161.0
8,8,9,AL,01017,Chambers,Lafayette,34215,1545.009,596.531,17.048,6.582,1562.057,603.113,32.917943,-85.391812,"Chambers<br>Every 10,000 People 1170.0 Not using Mask<br>Max of 12.0 People can get Infected",1170.0,12.0
9,9,10,AL,01019,Cherokee,Centre,25989,1434.076,553.7,119.859,46.278,1553.935,599.9780000000001,34.069515,-85.65424200000001,"Cherokee<br>Every 10,000 People 1350.0 Not using Mask<br>Max of 33.0 People can get Infected",1350.0,33.0
10,10,11,AL,01021,Chilton,Clanton,43643,1794.484,692.8539999999999,20.586,7.948,1815.07,700.802,32.85406,-86.726628,"Chilton<br>Every 10,000 People 600.0 Not using Mask<br>Max of 14.0 People can get Infected",600.0,14.0
11,11,12,AL,01023,Choctaw,Butler,13859,2365.955,913.5,19.059,7.359,2385.014,920.8589999999999,31.991008,-88.248887,"Choctaw<br>Every 10,000 People 490.0 Not using Mask<br>Max of 2.0 People can get Infected",490.0,2.0
12,12,13,AL,01025,Clarke,Grove Hill,25833,3207.6090000000004,1238.465,36.543,14.109,3244.152,1252.5739999999998,31.685521,-87.818624,"Clarke<br>Every 10,000 People 490.0 Not using Mask<br>Max of 11.0 People can get Infected",490.0,11.0
13,13,14,AL,01027,Clay,Ashland,13932,1564.2520000000002,603.961,5.285,2.040,1569.537,606.001,33.267809,-85.862051,"Clay<br>Every 10,000 People 1480.0 Not using Mask<br>Max of 21.0 People can get Infected",1480.0,21.0
14,14,15,AL,01029,Cleburne,Heflin,14972,1450.6529999999998,560.1,2.366,0.913,1453.0179999999998,561.013,33.671981,-85.516109,"Cleburne<br>Every 10,000 People 1510.0 Not using Mask<br>Max of 19.0 People can get Infected",1510.0,19.0
15,15,16,AL,01031,Coffee,"Elba, Enterprise",49948,1758.529,678.972,3.945,1.523,1762.474,680.495,31.402183,-85.989201,"Coffee<br>Every 10,000 People 1010.0 Not using Mask<br>Max of 19.0 People can get Infected",1010.0,19.0
16,16,17,AL,01033,Colbert,Tuscumbia,54428,1534.8770000000002,592.619,76.431,29.510,1611.308,622.129,34.703112,-87.801457,"Colbert<br>Every 10,000 People 820.0 Not using Mask<br>Max of 9.0 People can get Infected",820.0,9.0
17,17,18,AL,01035,Conecuh,Evergreen,13228,2201.895,850.1560000000001,6.645,2.566,2208.54,852.722,31.428293,-86.992029,"Conecuh<br>Every 10,000 People 990.0 Not using Mask<br>Max of 0.0 People can get Infected",990.0,0.0
18,18,19,AL,01037,Coosa,Rockford,11539,1685.891,650.9259999999999,39.947,15.423,1725.838,666.3489999999999,32.931445000000004,-86.243482,"Coosa<br>Every 10,000 People 550.0 Not using Mask<br>Max of 5.0 People can get Infected",550.0,5.0
19,19,20,AL,01039,Covington,Andalusia,37765,2668.87,1030.4560000000001,34.526,13.331,2703.3959999999997,1043.787,31.243987,-86.44872099999999,"Covington<br>Every 10,000 People 1870.0 Not using Mask<br>Max of 63.0 People can get Infected",1870.0,63.0
20,20,21,AL,01041,Crenshaw,Luverne,13906,1576.888,608.84,5.376,2.076,1582.264,610.9159999999999,31.732826,-86.319222,"Crenshaw<br>Every 10,000 People 600.0 Not using Mask<br>Max of 9.0 People can get Infected",600.0,9.0
21,21,22,AL,01043,Cullman,Cullman,80406,1903.2279999999998,734.841,52.267,20.180,1955.495,755.0210000000001,34.131923,-86.86926700000001,"Cullman<br>Every 10,000 People 1300.0 Not using Mask<br>Max of 7.0 People can get Infected",1300.0,7.0
22,22,23,AL,01045,Dale,Ozark,50251,1453.371,561.15,4.016,1.551,1457.388,562.701,31.430653999999997,-85.609476,"Dale<br>Every 10,000 People 890.0 Not using Mask<br>Max of 16.0 People can get Infected",890.0,16.0
23,23,24,AL,01047,Dallas,Selma,43820,2534.8070000000002,978.695,39.135,15.110,2573.942,993.805,32.33354,-87.114356,"Dallas<br>Every 10,000 People 950.0 Not using Mask<br>Max of 8.0 People can get Infected",950.0,8.0
24,24,25,AL,01049,DeKalb,Fort Payne,71109,2012.662,777.0930000000001,4.124,1.592,2016.786,778.685,34.460929,-85.80399200000001,"DeKalb<br>Every 10,000 People 840.0 Not using Mask<br>Max of 28.0 People can get Infected",840.0,28.0
25,25,26,AL,01051,Elmore,Wetumpka,79303,1601.868,618.485,99.863,38.557,1701.73,657.0419999999999,32.597229,-86.142739,"Elmore<br>Every 10,000 People 420.0 Not using Mask<br>Max of 47.0 People can get Infected",420.0,47.0
26,26,27,AL,01053,Escambia,Brewton,38319,2447.7470000000003,945.08,20.873,8.059,2468.62,953.1389999999999,31.121747999999997,-87.168429,"Escambia<br>Every 10,000 People 1140.0 Not using Mask<br>Max of 19.0 People can get Infected",1140.0,19.0
27,27,28,AL,01055,Etowah,Gadsden,104430,1385.619,534.991,35.323,13.638,1420.942,548.629,34.047638,-86.03442,"Etowah<br>Every 10,000 People 960.0 Not using Mask<br>Max of 31.0 People can get Infected",960.0,31.0
28,28,29,AL,01057,Fayette,Fayette,17241,1625.632,627.66,4.393,1.696,1630.024,629.356,33.732248999999996,-87.752049,"Fayette<br>Every 10,000 People 1380.0 Not using Mask<br>Max of 16.0 People can get Infected",1380.0,16.0
29,29,30,AL,01059,Franklin,Russellville,31704,1641.588,633.821,32.898,12.702,1674.486,646.523,34.441988,-87.842815,"Franklin<br>Every 10,000 People 650.0 Not using Mask<br>Max of 17.0 People can get Infected",650.0,17.0
30,30,31,AL,01061,Geneva,Geneva,26790,1487.71,574.408,11.765,4.543,1499.476,578.951,31.090866,-85.82434599999999,"Geneva<br>Every 10,000 People 1760.0 Not using Mask<br>Max of 9.0 People can get Infected",1760.0,9.0
31,31,32,AL,01063,Greene,Eutaw,9045,1676.007,647.11,33.231,12.831,1709.2379999999998,659.941,32.844497,-87.964201,"Greene<br>Every 10,000 People 300.0 Not using Mask<br>Max of 2.0 People can get Infected",300.0,2.0
32,32,33,AL,01065,Hale,Greensboro,15760,1667.8039999999999,643.943,32.526,12.558,1700.33,656.5010000000001,32.752796000000004,-87.62306099999999,"Hale<br>Every 10,000 People 260.0 Not using Mask<br>Max of 2.0 People can get Infected",260.0,2.0
33,33,34,AL,01067,Henry,Abbeville,17302,1454.9260000000002,561.75,16.987,6.559,1471.9129999999998,568.309,31.516978,-85.239971,"Henry<br>Every 10,000 People 660.0 Not using Mask<br>Max of 19.0 People can get Infected",660.0,19.0
34,34,35,AL,01069,Houston,Dothan,101547,1501.7379999999998,579.8240000000001,4.740,1.830,1506.4779999999998,581.654,31.158193,-85.296398,"Houston<br>Every 10,000 People 850.0 Not using Mask<br>Max of 87.0 People can get Infected",850.0,87.0
35,35,36,AL,01071,Jackson,Scottsboro,53227,2791.665,1077.868,126.657,48.903,2918.322,1126.771,34.763521999999995,-85.9774,"Jackson<br>Every 10,000 People 920.0 Not using Mask<br>Max of 27.0 People can get Infected",920.0,27.0
36,36,37,AL,01073,Jefferson,Birmingham,658466,2878.192,1111.276,32.474,12.538,2910.667,1123.8139999999999,33.553444,-86.896536,"Jefferson<br>Every 10,000 People 490.0 Not using Mask<br>Max of 203.0 People can get Infected",490.0,203.0
37,37,38,AL,01075,Lamar,Vernon,14564,1566.545,604.846,1.601,0.618,1568.145,605.464,33.787085,-88.08743100000001,"Lamar<br>Every 10,000 People 1070.0 Not using Mask<br>Max of 5.0 People can get Infected",1070.0,5.0
38,38,39,AL,01077,Lauderdale,Florence,92709,1729.328,667.697,138.027,53.293,1867.355,720.99,34.904121999999994,-87.650997,"Lauderdale<br>Every 10,000 People 930.0 Not using Mask<br>Max of 16.0 People can get Infected",930.0,16.0
39,39,40,AL,01079,Lawrence,Moulton,34339,1788.8470000000002,690.678,68.688,26.521,1857.535,717.199,34.529776,-87.321865,"Lawrence<br>Every 10,000 People 1620.0 Not using Mask<br>Max of 5.0 People can get Infected",1620.0,5.0
40,40,41,AL,01081,Lee,Opelika,140247,1573.511,607.536,21.530,8.313,1595.0410000000002,615.849,32.604064,-85.353048,"Lee<br>Every 10,000 People 530.0 Not using Mask<br>Max of 283.0 People can get Infected",530.0,283.0
41,41,42,AL,01083,Limestone,Athens,82782,1450.2279999999998,559.936,122.382,47.252,1572.61,607.188,34.810239,-86.9814,"Limestone<br>Every 10,000 People 1020.0 Not using Mask<br>Max of 8.0 People can get Infected",1020.0,8.0
42,42,43,AL,01085,Lowndes,Hayneville,11299,1854.2,715.9110000000001,23.724,9.160,1877.9229999999998,725.071,32.147888,-86.650586,"Lowndes<br>Every 10,000 People 1200.0 Not using Mask<br>Max of 3.0 People can get Infected",1200.0,3.0
43,43,44,AL,01087,Macon,Tuskegee,21452,1577.005,608.885,11.194,4.322,1588.1989999999998,613.207,32.387027,-85.692887,"Macon<br>Every 10,000 People 80.0 Not using Mask<br>Max of 12.0 People can get Infected",80.0,12.0
44,44,45,AL,01089,Madison,Huntsville,334811,2076.117,801.5930000000001,28.771,11.109,2104.888,812.702,34.764238,-86.55108,"Madison<br>Every 10,000 People 620.0 Not using Mask<br>Max of 100.0 People can get Infected",620.0,100.0
45,45,46,AL,01091,Marengo,Linden,21027,2530.112,976.882,14.995,5.789,2545.107,982.671,32.247591,-87.79109100000001,"Marengo<br>Every 10,000 People 330.0 Not using Mask<br>Max of 6.0 People can get Infected",330.0,6.0
46,46,47,AL,01093,Marion,Hamilton,30776,1922.527,742.2919999999999,3.313,1.279,1925.84,743.571,34.138219,-87.881551,"Marion<br>Every 10,000 People 1290.0 Not using Mask<br>Max of 9.0 People can get Infected",1290.0,9.0
47,47,48,AL,01095,Marshall,Guntersville,93019,1465.523,565.842,148.503,57.337,1614.026,623.179,34.309564,-86.321668,"Marshall<br>Every 10,000 People 750.0 Not using Mask<br>Max of 9.0 People can get Infected",750.0,9.0
48,48,49,AL,01097,Mobile,Mobile,412992,3184.223,1229.435,"1,073.751",414.577,4257.974,1644.0120000000002,30.684572999999997,-88.196568,"Mobile<br>Every 10,000 People 770.0 Not using Mask<br>Max of 80.0 People can get Infected",770.0,80.0
49,49,50,AL,01099,Monroe,Monroeville,23068,2656.485,1025.675,22.643,8.743,2679.1279999999997,1034.4180000000001,31.580332000000002,-87.383266,"Monroe<br>Every 10,000 People 1120.0 Not using Mask<br>Max of 3.0 People can get Infected",1120.0,3.0
50,50,51,AL,01101,Montgomery,Montgomery,229363,2031.191,784.247,40.571,15.665,2071.762,799.9119999999999,32.203651,-86.20383100000001,"Montgomery<br>Every 10,000 People 560.0 Not using Mask<br>Max of 48.0 People can get Infected",560.0,48.0
51,51,52,AL,01103,Morgan,Decatur,119490,1500.476,579.337,51.065,19.716,1551.5410000000002,599.053,34.454484,-86.846402,"Morgan<br>Every 10,000 People 780.0 Not using Mask<br>Max of 19.0 People can get Infected",780.0,19.0
52,52,53,AL,01105,Perry,Marion,10591,1863.92,719.664,10.919,4.216,1874.839,723.88,32.639005,-87.29382700000001,"Perry<br>Every 10,000 People 250.0 Not using Mask<br>Max of 0.0 People can get Infected",250.0,0.0
53,53,54,AL,01107,Pickens,Carrollton,19746,2282.837,881.408,22.578,8.717,2305.415,890.125,33.296809,-88.096878,"Pickens<br>Every 10,000 People 310.0 Not using Mask<br>Max of 9.0 People can get Infected",310.0,9.0
54,54,55,AL,01109,Pike,Troy,32899,1740.7160000000001,672.0939999999999,2.363,0.912,1743.078,673.0060000000001,31.798726000000002,-85.941997,"Pike<br>Every 10,000 People 600.0 Not using Mask<br>Max of 37.0 People can get Infected",600.0,37.0
55,55,56,AL,01111,Randolph,Wedowee,22913,1503.6170000000002,580.55,9.285,3.585,1512.902,584.135,33.296475,-85.46406800000001,"Randolph<br>Every 10,000 People 1580.0 Not using Mask<br>Max of 12.0 People can get Infected",1580.0,12.0
56,56,57,AL,01113,Russell,Phenix City,52947,1660.546,641.14,15.673,6.052,1676.219,647.192,32.289811,-85.18698,"Russell<br>Every 10,000 People 690.0 Not using Mask<br>Max of 5.0 People can get Infected",690.0,5.0
57,57,58,AL,01115,St. Clair,"Ashville, Pell City",83593,1636.619,631.9019999999999,56.300,21.738,1692.9189999999999,653.64,33.712963,-86.315663,"St. Clair<br>Every 10,000 People 270.0 Not using Mask<br>Max of 44.0 People can get Infected",270.0,44.0
58,58,59,AL,01117,Shelby,Columbiana,195085,2032.96,784.93,63.701,24.595,2096.661,809.525,33.262937,-86.678104,"Shelby<br>Every 10,000 People 220.0 Not using Mask<br>Max of 122.0 People can get Infected",220.0,122.0
59,59,60,AL,01119,Sumter,Livingston,13763,2341.0570000000002,903.887,24.436,9.435,2365.494,913.322,32.597481,-88.200057,"Sumter<br>Every 10,000 People 550.0 Not using Mask<br>Max of 0.0 People can get Infected",550.0,0.0
60,60,61,AL,01121,Talladega,Talladega,82291,1908.24,736.775,60.944,23.531,1969.184,760.306,33.369277000000004,-86.17580500000001,"Talladega<br>Every 10,000 People 1130.0 Not using Mask<br>Max of 37.0 People can get Infected",1130.0,37.0
61,61,62,AL,01123,Tallapoosa,Dadeville,41616,1855.78,716.5210000000001,128.809,49.733,1984.589,766.2539999999999,32.863369,-85.799553,"Tallapoosa<br>Every 10,000 People 670.0 Not using Mask<br>Max of 12.0 People can get Infected",670.0,12.0
62,62,63,AL,01125,Tuscaloosa,Tuscaloosa,194656,3423.329,1321.755,76.396,29.497,3499.725,1351.2520000000002,33.290202,-87.52286,"Tuscaloosa<br>Every 10,000 People 410.0 Not using Mask<br>Max of 180.0 People can get Infected",410.0,180.0
63,63,64,AL,01127,Walker,Jasper,67023,2049.177,791.192,36.264,14.002,2085.4410000000003,805.194,33.791571000000005,-87.30109200000001,"Walker<br>Every 10,000 People 900.0 Not using Mask<br>Max of 36.0 People can get Infected",900.0,36.0
64,64,65,AL,01129,Washington,Chatom,17581,2797.722,1080.2069999999999,21.651,8.359,2819.373,1088.566,31.406973999999998,-88.202078,"Washington<br>Every 10,000 People 180.0 Not using Mask<br>Max of 2.0 People can get Infected",180.0,2.0
65,65,66,AL,01131,Wilcox,Camden,11670,2301.2,888.498,48.985,18.913,2350.185,907.4110000000001,31.99033,-87.302205,"Wilcox<br>Every 10,000 People 610.0 Not using Mask<br>Max of 3.0 People can get Infected",610.0,3.0
66,66,67,AL,01133,Winston,Double Springs,24484,1587.608,612.979,48.923,18.889,1636.531,631.868,34.155888,-87.364147,"Winston<br>Every 10,000 People 1300.0 Not using Mask<br>Max of 7.0 People can get Infected",1300.0,7.0
67,67,68,AK,02013,Aleutians East,Sand Point,3141,18083.148999999998,6981.943,"20,792.209","8,027.917",38875.358,15009.86,55.243722,-161.950749,"Aleutians East<br>Every 10,000 People 670.0 Not using Mask<br>Max of 14.0 People can get Infected",670.0,14.0
68,68,69,AK,02016,Aleutians West ,—,5561,11370.763,4390.276,"25,190.644","9,726.162",36561.406,14116.438,51.959447,178.338813,"Aleutians West <br>Every 10,000 People 780.0 Not using Mask<br>Max of 0.0 People can get Infected",780.0,0.0
69,69,70,AK,02020,Anchorage,Anchorage,291826,4415.109,1704.683,663.861,256.318,5078.97,1961.001,61.177549,-149.27435400000002,"Anchorage<br>Every 10,000 People 420.0 Not using Mask<br>Max of 197.0 People can get Infected",420.0,197.0
70,70,71,AK,02050,Bethel ,—,17013,105075.823,40570.003,"12,779.524","4,934.202",117855.34599999999,45504.205,60.928916,-160.15335,"Bethel <br>Every 10,000 People 1010.0 Not using Mask<br>Max of 0.0 People can get Infected",1010.0,0.0
71,71,72,AK,02060,Bristol Bay,Naknek,997,1304.947,503.843,993.830,383.720,2298.777,887.563,58.731373,-156.986612,"Bristol Bay<br>Every 10,000 People 480.0 Not using Mask<br>Max of 0.0 People can get Infected",480.0,0.0
72,72,73,AK,02068,Denali,Healy,1826,33026.001000000004,12751.411,66.069,25.509,33092.068999999996,12776.92,63.682731999999994,-150.02671899999999,"Denali<br>Every 10,000 People 620.0 Not using Mask<br>Max of 0.0 People can get Infected",620.0,0.0
73,73,74,AK,02070,Dillingham ,—,4847,48092.913,18568.778000000002,"6,077.224","2,346.429",54170.136,20915.207,59.824816000000006,-158.602233,"Dillingham <br>Every 10,000 People 720.0 Not using Mask<br>Max of 0.0 People can get Infected",720.0,0.0
74,74,75,AK,02090,Fairbanks North Star,Fairbanks,97581,19005.874,7338.209,273.188,105.479,19279.063000000002,7443.688,64.690832,-146.599867,"Fairbanks North Star<br>Every 10,000 People 940.0 Not using Mask<br>Max of 49.0 People can get Infected",940.0,49.0
75,75,76,AK,02100,Haines,Haines,2508,6005.147,2318.6,"1,053.875",406.903,7059.022,2725.5029999999997,59.09990500000001,-135.578102,"Haines<br>Every 10,000 People 550.0 Not using Mask<br>Max of 0.0 People can get Infected",550.0,0.0
76,76,77,AK,02105,Hoonah-Angoon ,—,2150,19489.439,7524.915,"8,778.085","3,389.238",28267.523999999998,10914.153,58.076434,-135.1851,"Hoonah-Angoon <br>Every 10,000 People 510.0 Not using Mask<br>Max of nan People can get Infected",510.0,
77,77,78,AK,02110,Juneau,Juneau,31275,6997.969,2701.9309999999996,"1,429.575",551.962,8427.544,3253.893,58.3727,-134.17878100000001,"Juneau<br>Every 10,000 People 510.0 Not using Mask<br>Max of 5.0 People can get Infected",510.0,5.0
78,78,79,AK,02122,Kenai Peninsula,Soldotna,55400,41634.915,16075.331,"22,473.290","8,676.986",64108.206,24752.317000000003,60.366372999999996,-152.32197299999999,"Kenai Peninsula<br>Every 10,000 People 430.0 Not using Mask<br>Max of 5.0 People can get Infected",430.0,5.0
79,79,80,AK,02130,Ketchikan Gateway,Ketchikan,13477,12583.233,4858.414000000001,"4,649.414","1,795.149",17232.647,6653.563,55.449938,-131.106685,"Ketchikan Gateway<br>Every 10,000 People 250.0 Not using Mask<br>Max of 2.0 People can get Infected",250.0,2.0
80,80,81,AK,02150,Kodiak Island,Kodiak,13592,16963.332,6549.579000000001,"14,173.062","5,472.250",31136.394,12021.829,57.553611,-153.630911,"Kodiak Island<br>Every 10,000 People 420.0 Not using Mask<br>Max of 0.0 People can get Infected",420.0,0.0
81,81,82,AK,02164,Lake and Peninsula,King Salmon ,1631,61258.419,23652.009,"24,010.457","9,270.490",85268.877,32922.498999999996,58.205065000000005,-156.705188,"Lake and Peninsula<br>Every 10,000 People 550.0 Not using Mask<br>Max of 0.0 People can get Infected",550.0,0.0
82,82,83,AK,02170,Matanuska-Susitna,Palmer,88995,63734.16,24607.897999999997,"1,682.737",649.709,65416.898,25257.607000000004,62.182173999999996,-149.407974,"Matanuska-Susitna<br>Every 10,000 People 420.0 Not using Mask<br>Max of 19.0 People can get Infected",420.0,19.0
83,83,84,AK,02180,Nome ,—,9492,59470.685999999994,22961.761000000002,"13,768.012","5,315.859",73238.698,28277.62,64.783686,-164.18891200000002,"Nome <br>Every 10,000 People 860.0 Not using Mask<br>Max of 0.0 People can get Infected",860.0,0.0
84,84,85,AK,02185,North Slope,Barrow,9430,229720.05399999997,88695.413,"15,801.179","6,100.870",245521.234,94796.28300000001,69.449343,-153.47283000000002,"North Slope<br>Every 10,000 People 360.0 Not using Mask<br>Max of 2.0 People can get Infected",360.0,2.0
85,85,86,AK,02188,Northwest Arctic,Kotzebue,7523,92132.565,35572.584,"13,406.688","5,176.351",105539.25300000001,40748.935,67.005066,-160.021086,"Northwest Arctic<br>Every 10,000 People 350.0 Not using Mask<br>Max of 0.0 People can get Infected",350.0,0.0
86,86,87,AK,02195,Petersburg ,—,3815,8500.294,3281.982,"6,221.368","2,402.084",14721.662,5684.066,56.639612,-133.527996,"Petersburg <br>Every 10,000 People 420.0 Not using Mask<br>Max of 0.0 People can get Infected",420.0,0.0
87,87,88,AK,02198,Prince of Wales-Hyder ,—,5559,10160.194,3922.873,"9,739.418","3,760.411",19899.612,7683.284000000001,55.415682999999994,-132.875734,"Prince of Wales-Hyder <br>Every 10,000 People 330.0 Not using Mask<br>Max of 2.0 People can get Infected",330.0,2.0
88,88,89,AK,02220,Sitka,Sitka,8881,7434.144,2870.3390000000004,"5,027.404","1,941.092",12461.548,4811.431,57.142509,-135.332624,"Sitka<br>Every 10,000 People 480.0 Not using Mask<br>Max of 0.0 People can get Infected",480.0,0.0
89,89,90,AK,02230,Skagway,Skagway,968,1171.516,452.325,30.331,11.711,1201.847,464.036,59.575097,-135.335418,"Skagway<br>Every 10,000 People 580.0 Not using Mask<br>Max of nan People can get Infected",580.0,
90,90,91,AK,02240,Southeast Fairbanks ,—,7029,64150.915,24768.807999999997,752.795,290.656,64903.710999999996,25059.464,63.864996999999995,-143.218628,"Southeast Fairbanks <br>Every 10,000 People 640.0 Not using Mask<br>Max of 0.0 People can get Infected",640.0,0.0
91,91,92,AK,02261,Valdez-Cordova ,—,9636,88680.877,34239.88,"15,799.690","6,100.295",104480.567,40340.175,61.34984,-145.02314099999998,"Valdez-Cordova <br>Every 10,000 People 400.0 Not using Mask<br>Max of 2.0 People can get Infected",400.0,2.0
92,92,93,AK,02270,Wade Hampton ,—,7459,44240.706,17081.433,"6,711.999","2,591.518",50952.705,19672.951,62.283174,-163.19095,"Wade Hampton <br>Every 10,000 People nan Not using Mask<br>Max of nan People can get Infected",,
93,93,94,AK,02275,Wrangell,Wrangell,2369,6582.411,2541.4829999999997,"2,384.276",920.574,8966.687,3462.0570000000002,56.279120999999996,-132.040326,"Wrangell<br>Every 10,000 People 350.0 Not using Mask<br>Max of 0.0 People can get Infected",350.0,0.0
94,94,95,AK,02282,Yakutat,Yakutat,662,19812.002,7649.456999999999,"4,696.710","1,813.410",24508.712000000003,9462.867,59.999083,-140.23959299999999,"Yakutat<br>Every 10,000 People 470.0 Not using Mask<br>Max of nan People can get Infected",470.0,
95,95,96,AK,02290,Yukon-Koyukuk ,—,5588,376855.656,145504.789,"5,956.564","2,299.842",382812.22,147804.631,65.376131,-151.576855,"Yukon-Koyukuk <br>Every 10,000 People 440.0 Not using Mask<br>Max of 0.0 People can get Infected",440.0,0.0
96,96,97,AZ,04001,Apache,St. Johns,71518,29001.444,11197.521,54.176,20.917,29055.62,11218.438,35.385845,-109.493747,"Apache<br>Every 10,000 People 550.0 Not using Mask<br>Max of 8.0 People can get Infected",550.0,8.0
97,97,98,AZ,04003,Cochise,Bisbee,131346,15969.063999999998,6165.69,137.025,52.906,16106.089,6218.596,31.881793,-109.75412,"Cochise<br>Every 10,000 People 530.0 Not using Mask<br>Max of 8.0 People can get Infected",530.0,8.0
98,98,99,AZ,04005,Coconino,Flagstaff,134421,48222.689000000006,18618.885,109.964,42.457,48332.653,18661.342,35.829692,-111.773728,"Coconino<br>Every 10,000 People 390.0 Not using Mask<br>Max of 28.0 People can get Infected",390.0,28.0
99,99,100,AZ,04007,Gila,Globe,53597,12322.989,4757.933,97.112,37.495,12420.101,4795.428,33.789618,-110.81187,"Gila<br>Every 10,000 People 730.0 Not using Mask<br>Max of 5.0 People can get Infected",730.0,5.0
100,100,101,AZ,04009,Graham,Safford,37220,11972.471000000001,4622.597,47.834,18.469,12020.305,4641.066,32.931828,-109.87831000000001,"Graham<br>Every 10,000 People 950.0 Not using Mask<br>Max of 14.0 People can get Infected",950.0,14.0
101,101,102,AZ,04011,Greenlee,Clifton,8437,4773.674,1843.126,13.745,5.307,4787.419,1848.433,33.238872,-109.242323,"Greenlee<br>Every 10,000 People 1110.0 Not using Mask<br>Max of 0.0 People can get Infected",1110.0,0.0
102,102,103,AZ,04012,La Paz,Parker,20489,11653.983999999999,4499.629,36.582,14.124,11690.566,4513.753,33.727625,-114.038793,"La Paz<br>Every 10,000 People 310.0 Not using Mask<br>Max of 3.0 People can get Infected",310.0,3.0
103,103,104,AZ,04013,Maricopa,Phoenix,3817117,23828.26,9200.143,62.796,24.246,23891.056,9224.389000000001,33.346540999999995,-112.495534,"Maricopa<br>Every 10,000 People 230.0 Not using Mask<br>Max of 602.0 People can get Infected",230.0,602.0
104,104,105,AZ,04015,Mohave,Kingman,200186,34475.547,13311.083999999999,387.371,149.565,34862.918,13460.649,35.717705,-113.74968899999999,"Mohave<br>Every 10,000 People 510.0 Not using Mask<br>Max of 39.0 People can get Infected",510.0,39.0
105,105,106,AZ,04017,Navajo,Holbrook,107449,25771.472999999998,9950.421999999999,24.078,9.297,25795.551,9959.719000000001,35.390934,-110.320908,"Navajo<br>Every 10,000 People 910.0 Not using Mask<br>Max of 16.0 People can get Infected",910.0,16.0
106,106,107,AZ,04019,Pima,Tucson,980263,23794.312,9187.036,5.338,2.061,23799.648999999998,9189.097,32.128237,-111.783018,"Pima<br>Every 10,000 People 230.0 Not using Mask<br>Max of 204.0 People can get Infected",230.0,204.0
107,107,108,AZ,04021,Pinal,Florence,375770,13896.87,5365.611999999999,22.332,8.622,13919.201000000001,5374.234,32.91891,-111.36725700000001,"Pinal<br>Every 10,000 People 330.0 Not using Mask<br>Max of 148.0 People can get Infected",330.0,148.0
108,108,109,AZ,04023,Santa Cruz,Nogales,47420,3203.599,1236.9160000000002,3.088,1.192,3206.687,1238.108,31.525903999999997,-110.84518999999999,"Santa Cruz<br>Every 10,000 People 280.0 Not using Mask<br>Max of 8.0 People can get Infected",280.0,8.0
109,109,110,AZ,04025,Yavapai,Prescott,211033,21039.765,8123.499,11.502,4.441,21051.267000000003,8127.94,34.630044,-112.573745,"Yavapai<br>Every 10,000 People 310.0 Not using Mask<br>Max of 5.0 People can get Infected",310.0,5.0
110,110,111,AZ,04027,Yuma,Yuma,195751,14281.173999999999,5513.991999999999,13.254,5.117,14294.428,5519.109,32.773942,-113.910905,"Yuma<br>Every 10,000 People 80.0 Not using Mask<br>Max of 44.0 People can get Infected",80.0,44.0
111,111,112,AR,05001,Arkansas,"De Witt, Stuttgart",19019,2560.903,988.77,116.496,44.979,2677.3979999999997,1033.749,34.289574,-91.376547,"Arkansas<br>Every 10,000 People 190.0 Not using Mask<br>Max of 9.0 People can get Infected",190.0,9.0
112,112,113,AR,05003,Ashley,Hamburg,21853,2396.6420000000003,925.3489999999999,39.311,15.178,2435.953,940.5269999999999,33.190835,-91.772267,"Ashley<br>Every 10,000 People 230.0 Not using Mask<br>Max of 2.0 People can get Infected",230.0,2.0
113,113,114,AR,05005,Baxter,Mountain Home,41513,1435.588,554.283,83.997,32.432,1519.585,586.715,36.28071,-92.330438,"Baxter<br>Every 10,000 People 1500.0 Not using Mask<br>Max of 7.0 People can get Infected",1500.0,7.0
114,114,115,AR,05007,Benton,Bentonville,221339,2194.645,847.357,94.662,36.549,2289.3070000000002,883.9060000000001,36.337825,-94.256187,"Benton<br>Every 10,000 People 810.0 Not using Mask<br>Max of 95.0 People can get Infected",810.0,95.0
115,115,116,AR,05009,Boone,Harrison,36903,1528.692,590.231,30.044,11.600,1558.737,601.831,36.304308,-93.079204,"Boone<br>Every 10,000 People 1290.0 Not using Mask<br>Max of 9.0 People can get Infected",1290.0,9.0
116,116,117,AR,05011,Bradley,Warren,11508,1681.5,649.231,9.547,3.686,1691.047,652.9169999999999,33.463819,-92.168164,"Bradley<br>Every 10,000 People 940.0 Not using Mask<br>Max of 0.0 People can get Infected",940.0,0.0
117,117,118,AR,05013,Calhoun,Hampton,5368,1628.017,628.581,9.926,3.833,1637.943,632.414,33.56046,-92.513879,"Calhoun<br>Every 10,000 People 1450.0 Not using Mask<br>Max of 0.0 People can get Infected",1450.0,0.0
118,118,119,AR,05015,Carroll,"Berryville, Eureka Springs",27446,1631.9170000000001,630.087,22.566,8.713,1654.484,638.8,36.337773999999996,-93.541663,"Carroll<br>Every 10,000 People 1110.0 Not using Mask<br>Max of 5.0 People can get Infected",1110.0,5.0
119,119,120,AR,05017,Chicot,Lake Village,11800,1668.74,644.304,120.392,46.483,1789.132,690.7869999999999,33.267139,-91.297158,"Chicot<br>Every 10,000 People 1040.0 Not using Mask<br>Max of 6.0 People can get Infected",1040.0,6.0
120,120,121,AR,05019,Clark,Arkadelphia,22995,2243.1220000000003,866.074,43.396,16.755,2286.518,882.829,34.053312,-93.17620500000001,"Clark<br>Every 10,000 People 800.0 Not using Mask<br>Max of 23.0 People can get Infected",800.0,23.0
121,121,122,AR,05021,Clay,"Piggott, Corning",16083,1656.2060000000001,639.465,5.106,1.971,1661.3120000000001,641.436,36.367302,-90.418704,"Clay<br>Every 10,000 People 820.0 Not using Mask<br>Max of 19.0 People can get Infected",820.0,19.0
122,122,123,AR,05023,Cleburne,Heber Springs,25970,1434.056,553.692,99.015,38.230,1533.0710000000001,591.922,35.566288,-92.059974,"Cleburne<br>Every 10,000 People 360.0 Not using Mask<br>Max of 2.0 People can get Infected",360.0,2.0
123,123,124,AR,05025,Cleveland,Rison,8689,1548.2520000000002,597.783,2.500,0.965,1550.7520000000002,598.748,33.893201,-92.188714,"Cleveland<br>Every 10,000 People 1070.0 Not using Mask<br>Max of 2.0 People can get Infected",1070.0,2.0
124,124,125,AR,05027,Columbia,Magnolia,24552,1984.067,766.053,1.814,0.700,1985.88,766.753,33.215070000000004,-93.226901,"Columbia<br>Every 10,000 People 2410.0 Not using Mask<br>Max of 2.0 People can get Infected",2410.0,2.0
125,125,126,AR,05029,Conway,Morrilton,21273,1430.32,552.25,37.343,14.418,1467.662,566.668,35.265702000000005,-92.68924799999999,"Conway<br>Every 10,000 People 710.0 Not using Mask<br>Max of 0.0 People can get Infected",710.0,0.0
126,126,127,AR,05031,Craighead,"Lake City, Jonesboro",96443,1831.656,707.206,14.162,5.468,1845.818,712.674,35.828268,-90.630411,"Craighead<br>Every 10,000 People 780.0 Not using Mask<br>Max of 119.0 People can get Infected",780.0,119.0
127,127,128,AR,05033,Crawford,Van Buren,61948,1536.1070000000002,593.094,28.874,11.148,1564.981,604.242,35.583040999999994,-94.23622399999999,"Crawford<br>Every 10,000 People 1550.0 Not using Mask<br>Max of 33.0 People can get Infected",1550.0,33.0
128,128,129,AR,05035,Crittenden,Marion,50902,1579.2720000000002,609.76,68.939,26.617,1648.211,636.377,35.211878000000006,-90.315331,"Crittenden<br>Every 10,000 People 590.0 Not using Mask<br>Max of 12.0 People can get Infected",590.0,12.0
129,129,130,AR,05037,Cross,Wynne,17870,1596.418,616.381,15.349,5.926,1611.767,622.307,35.291259000000004,-90.773894,"Cross<br>Every 10,000 People 970.0 Not using Mask<br>Max of 16.0 People can get Infected",970.0,16.0
130,130,131,AR,05039,Dallas,Fordyce,8116,1728.523,667.3860000000001,1.864,0.720,1730.3870000000002,668.1060000000001,33.967822999999996,-92.653999,"Dallas<br>Every 10,000 People 1970.0 Not using Mask<br>Max of 0.0 People can get Infected",1970.0,0.0
131,131,132,AR,05041,Desha,Arkansas City,13008,1989.504,768.1519999999999,133.058,51.374,2122.563,819.5260000000001,33.828748,-91.244427,"Desha<br>Every 10,000 People 780.0 Not using Mask<br>Max of 7.0 People can get Infected",780.0,7.0
132,132,133,AR,05043,Drew,Monticello,18509,2145.431,828.3560000000001,18.921,7.305,2164.3520000000003,835.6610000000001,33.587241999999996,-91.722778,"Drew<br>Every 10,000 People 630.0 Not using Mask<br>Max of 0.0 People can get Infected",630.0,0.0
133,133,134,AR,05045,Faulkner,Conway,113237,1678.013,647.884,41.927,16.188,1719.94,664.072,35.146356,-92.32465400000001,"Faulkner<br>Every 10,000 People 660.0 Not using Mask<br>Max of 26.0 People can get Infected",660.0,26.0
134,134,135,AR,05047,Franklin,"Charleston, Ozark",18125,1576.932,608.857,27.934,10.785,1604.866,619.6419999999999,35.508573,-93.887672,"Franklin<br>Every 10,000 People 1490.0 Not using Mask<br>Max of 9.0 People can get Infected",1490.0,9.0
135,135,136,AR,05049,Fulton,Salem,12245,1601.114,618.194,5.527,2.134,1606.642,620.328,36.383443,-91.819239,"Fulton<br>Every 10,000 People 1050.0 Not using Mask<br>Max of 7.0 People can get Infected",1050.0,7.0
136,136,137,AR,05051,Garland,Hot Springs,96024,1755.445,677.7810000000001,147.214,56.840,1902.6589999999999,734.6210000000001,34.578860999999996,-93.146915,"Garland<br>Every 10,000 People 250.0 Not using Mask<br>Max of 47.0 People can get Infected",250.0,47.0
137,137,138,AR,05053,Grant,Sheridan,17853,1636.3770000000002,631.809,2.904,1.121,1639.281,632.93,34.288063,-92.42398399999999,"Grant<br>Every 10,000 People 820.0 Not using Mask<br>Max of 5.0 People can get Infected",820.0,5.0
138,138,139,AR,05055,Greene,Paragould,42090,1496.233,577.6990000000001,4.827,1.864,1501.06,579.563,36.119921999999995,-90.565241,"Greene<br>Every 10,000 People 620.0 Not using Mask<br>Max of 14.0 People can get Infected",620.0,14.0
139,139,140,AR,05057,Hempstead,Hope,22609,1884.2679999999998,727.52,35.372,13.657,1919.64,741.177,33.728611,-93.665809,"Hempstead<br>Every 10,000 People 980.0 Not using Mask<br>Max of 0.0 People can get Infected",980.0,0.0
140,140,141,AR,05059,Hot Spring,Malvern,32923,1593.3670000000002,615.202,18.053,6.970,1611.42,622.172,34.315177,-92.944147,"Hot Spring<br>Every 10,000 People 590.0 Not using Mask<br>Max of 8.0 People can get Infected",590.0,8.0
141,141,142,AR,05061,Howard,Nashville,13789,1524.3470000000002,588.554,17.509,6.760,1541.856,595.314,34.083179,-93.990988,"Howard<br>Every 10,000 People 810.0 Not using Mask<br>Max of 3.0 People can get Infected",810.0,3.0
142,142,143,AR,05063,Independence,Batesville,36647,1978.629,763.953,19.594,7.565,1998.223,771.518,35.737499,-91.559942,"Independence<br>Every 10,000 People 1370.0 Not using Mask<br>Max of 28.0 People can get Infected",1370.0,28.0
143,143,144,AR,05065,Izard,Melbourne,13696,1503.6860000000001,580.577,8.913,3.441,1512.599,584.018,36.094879,-91.913625,"Izard<br>Every 10,000 People 860.0 Not using Mask<br>Max of 2.0 People can get Infected",860.0,2.0
144,144,145,AR,05067,Jackson,Newport,17997,1641.8929999999998,633.938,19.588,7.563,1661.481,641.501,35.596605,-91.223178,"Jackson<br>Every 10,000 People 1160.0 Not using Mask<br>Max of 7.0 People can get Infected",1160.0,7.0
145,145,146,AR,05069,Jefferson,Pine Bluff,77435,2255.221,870.7460000000001,111.448,43.030,2366.6679999999997,913.7760000000001,34.277696,-91.930701,"Jefferson<br>Every 10,000 People 420.0 Not using Mask<br>Max of 58.0 People can get Infected",420.0,58.0
146,146,147,AR,05071,Johnson,Clarksville,25540,1708.8829999999998,659.804,59.416,22.940,1768.299,682.7439999999999,35.573359,-93.46632199999999,"Johnson<br>Every 10,000 People 1440.0 Not using Mask<br>Max of 8.0 People can get Infected",1440.0,8.0
147,147,148,AR,05073,Lafayette,Lewisville,7645,1368.2079999999999,528.268,43.539,16.811,1411.7479999999998,545.0790000000001,33.24066,-93.611643,"Lafayette<br>Every 10,000 People 1200.0 Not using Mask<br>Max of 2.0 People can get Infected",1200.0,2.0
148,148,149,AR,05075,Lawrence,Walnut Ridge,17415,1521.9129999999998,587.614,12.245,4.728,1534.158,592.342,36.041098,-91.101153,"Lawrence<br>Every 10,000 People 850.0 Not using Mask<br>Max of 6.0 People can get Infected",850.0,6.0
149,149,150,AR,05077,Lee,Marianna,10424,1560.781,602.621,43.722,16.881,1604.503,619.502,34.77975,-90.779288,"Lee<br>Every 10,000 People 1030.0 Not using Mask<br>Max of 3.0 People can get Infected",1030.0,3.0
150,150,151,AR,05079,Lincoln,Star City,14134,1454.3210000000001,561.5169999999999,27.631,10.668,1481.9520000000002,572.185,33.957665000000006,-91.727624,"Lincoln<br>Every 10,000 People 350.0 Not using Mask<br>Max of 281.0 People can get Infected",350.0,281.0
151,151,152,AR,05081,Little River,Ashdown,13171,1378.53,532.253,84.208,32.513,1462.737,564.766,33.699496999999994,-94.229774,"Little River<br>Every 10,000 People 740.0 Not using Mask<br>Max of 7.0 People can get Infected",740.0,7.0
152,152,153,AR,05083,Logan,"Booneville, Paris",22353,1834.0339999999999,708.125,60.696,23.435,1894.731,731.56,35.21855,-93.720563,"Logan<br>Every 10,000 People 1480.0 Not using Mask<br>Max of 0.0 People can get Infected",1480.0,0.0
153,153,154,AR,05085,Lonoke,Lonoke,68356,1996.1770000000001,770.7280000000001,83.170,32.112,2079.347,802.84,34.755114,-91.894132,"Lonoke<br>Every 10,000 People 480.0 Not using Mask<br>Max of 30.0 People can get Infected",480.0,30.0
154,154,155,AR,05087,Madison,Huntsville,15717,2160.7110000000002,834.255,7.316,2.825,2168.028,837.08,36.012545,-93.724053,"Madison<br>Every 10,000 People 750.0 Not using Mask<br>Max of 9.0 People can get Infected",750.0,9.0
155,155,156,AR,05089,Marion,Yellville,16653,1546.245,597.009,112.175,43.311,1658.42,640.32,36.266656,-92.678588,"Marion<br>Every 10,000 People 1710.0 Not using Mask<br>Max of 7.0 People can get Infected",1710.0,7.0
156,156,157,AR,05091,Miller,Texarkana,43462,1620.24,625.578,31.264,12.071,1651.504,637.649,33.305505,-93.90150899999999,"Miller<br>Every 10,000 People 640.0 Not using Mask<br>Max of 9.0 People can get Infected",640.0,9.0
157,157,158,AR,05093,Mississippi,"Blytheville, Osceola",46480,2332.476,900.574,49.826,19.238,2382.302,919.812,35.766943,-90.05220899999999,"Mississippi<br>Every 10,000 People 330.0 Not using Mask<br>Max of 20.0 People can get Infected",330.0,20.0
158,158,159,AR,05095,Monroe,Clarendon,8149,1572.4389999999999,607.122,36.715,14.176,1609.154,621.298,34.679513,-91.203314,"Monroe<br>Every 10,000 People 680.0 Not using Mask<br>Max of 2.0 People can get Infected",680.0,2.0
159,159,160,AR,05097,Montgomery,Mount Ida,9487,2019.88,779.88,52.860,20.409,2072.74,800.289,34.545652000000004,-93.664147,"Montgomery<br>Every 10,000 People 810.0 Not using Mask<br>Max of 5.0 People can get Infected",810.0,5.0
160,160,161,AR,05099,Nevada,Prescott,8997,1600.19,617.837,7.258,2.802,1607.4470000000001,620.639,33.666699,-93.305072,"Nevada<br>Every 10,000 People 1430.0 Not using Mask<br>Max of 5.0 People can get Infected",1430.0,5.0
161,161,162,AR,05101,Newton,Jasper,8330,2126.11,820.8960000000001,5.932,2.290,2132.042,823.186,35.910063,-93.21508399999999,"Newton<br>Every 10,000 People 1070.0 Not using Mask<br>Max of 5.0 People can get Infected",1070.0,5.0
162,162,163,AR,05103,Ouachita,Camden,26120,1897.9,732.783,18.050,6.969,1915.95,739.752,33.591158,-92.87841800000001,"Ouachita<br>Every 10,000 People 1510.0 Not using Mask<br>Max of 5.0 People can get Infected",1510.0,5.0
163,163,164,AR,05105,Perry,Perryville,10445,1428.126,551.4019999999999,23.649,9.131,1451.775,560.533,34.946363,-92.926877,"Perry<br>Every 10,000 People 980.0 Not using Mask<br>Max of 0.0 People can get Infected",980.0,0.0
164,164,165,AR,05107,Phillips,Helena-West Helena,21757,1801.7579999999998,695.663,82.056,31.682,1883.8139999999999,727.345,34.425841999999996,-90.848386,"Phillips<br>Every 10,000 People 520.0 Not using Mask<br>Max of 8.0 People can get Infected",520.0,8.0
165,165,166,AR,05109,Pike,Murfreesboro,11291,1555.592,600.618,34.996,13.512,1590.588,614.13,34.158190999999995,-93.658659,"Pike<br>Every 10,000 People 640.0 Not using Mask<br>Max of 7.0 People can get Infected",640.0,7.0
166,166,167,AR,05111,Poinsett,Harrisburg,24583,1964.2179999999998,758.3889999999999,13.523,5.221,1977.74,763.61,35.568981,-90.680595,"Poinsett<br>Every 10,000 People 770.0 Not using Mask<br>Max of 14.0 People can get Infected",770.0,14.0
167,167,168,AR,05113,Polk,Mena,20662,2221.3779999999997,857.679,12.387,4.783,2233.765,862.462,34.490915,-94.230884,"Polk<br>Every 10,000 People 1800.0 Not using Mask<br>Max of 5.0 People can get Infected",1800.0,5.0
168,168,169,AR,05115,Pope,Russellville,61754,2104.491,812.548,47.207,18.227,2151.697,830.775,35.455296999999995,-93.03153499999999,"Pope<br>Every 10,000 People 820.0 Not using Mask<br>Max of 30.0 People can get Infected",820.0,30.0
169,169,170,AR,05117,Prairie,"Des Arc, De Valls Bluff",8715,1678.204,647.9580000000001,71.629,27.656,1749.8329999999999,675.6139999999999,34.828225,-91.5572,"Prairie<br>Every 10,000 People 620.0 Not using Mask<br>Max of 3.0 People can get Infected",620.0,3.0
170,170,171,AR,05119,Pulaski,Little Rock,382748,1967.777,759.763,124.062,47.900,2091.839,807.663,34.773988,-92.316515,"Pulaski<br>Every 10,000 People 280.0 Not using Mask<br>Max of 142.0 People can get Infected",280.0,142.0
171,171,172,AR,05121,Randolph,Pocahontas,17969,1689.1660000000002,652.191,9.968,3.849,1699.134,656.04,36.341299,-91.028441,"Randolph<br>Every 10,000 People 510.0 Not using Mask<br>Max of 8.0 People can get Infected",510.0,8.0
172,172,173,AR,05123,St. Francis,Forrest City,28258,1644.049,634.771,20.050,7.741,1664.099,642.512,35.014438,-90.742199,"St. Francis<br>Every 10,000 People 870.0 Not using Mask<br>Max of 8.0 People can get Infected",870.0,8.0
173,173,174,AR,05125,Saline,Benton,107118,1874.125,723.6039999999999,17.836,6.886,1891.96,730.49,34.648525,-92.674463,"Saline<br>Every 10,000 People 660.0 Not using Mask<br>Max of 30.0 People can get Infected",660.0,30.0
174,174,175,AR,05127,Scott,Waldron,11233,2311.098,892.32,14.901,5.753,2325.999,898.073,34.858869,-94.063641,"Scott<br>Every 10,000 People 1550.0 Not using Mask<br>Max of 2.0 People can get Infected",1550.0,2.0
175,175,176,AR,05129,Searcy,Marshall,8195,1725.1770000000001,666.095,6.257,2.416,1731.434,668.5110000000001,35.909659999999995,-92.69935100000001,"Searcy<br>Every 10,000 People 1000.0 Not using Mask<br>Max of 5.0 People can get Infected",1000.0,5.0
176,176,177,AR,05131,Sebastian,"Greenwood, Fort Smith",125744,1377.644,531.911,36.906,14.249,1414.549,546.16,35.196981,-94.274989,"Sebastian<br>Every 10,000 People 1210.0 Not using Mask<br>Max of 33.0 People can get Infected",1210.0,33.0
177,177,178,AR,05133,Sevier,De Queen,17058,1463.67,565.126,41.831,16.151,1505.501,581.2769999999999,33.994608,-94.24329,"Sevier<br>Every 10,000 People 1200.0 Not using Mask<br>Max of 2.0 People can get Infected",1200.0,2.0
178,178,179,AR,05135,Sharp,Ash Flat,17264,1565.489,604.439,5.173,1.997,1570.662,606.436,36.173398999999996,-91.471069,"Sharp<br>Every 10,000 People 670.0 Not using Mask<br>Max of 2.0 People can get Infected",670.0,2.0
179,179,180,AR,05137,Stone,Mountain View,12394,1570.5810000000001,606.405,7.839,3.027,1578.42,609.432,35.856989,-92.14049399999999,"Stone<br>Every 10,000 People 670.0 Not using Mask<br>Max of 2.0 People can get Infected",670.0,2.0
180,180,181,AR,05139,Union,El Dorado,41639,2691.553,1039.214,41.402,15.985,2732.954,1055.1989999999998,33.168219,-92.598145,"Union<br>Every 10,000 People 1160.0 Not using Mask<br>Max of 33.0 People can get Infected",1160.0,33.0
181,181,182,AR,05141,Van Buren,Clinton,17295,1834.082,708.143,41.806,16.141,1875.888,724.284,35.582959,-92.515977,"Van Buren<br>Every 10,000 People 330.0 Not using Mask<br>Max of 5.0 People can get Infected",330.0,5.0
182,182,183,AR,05143,Washington,Fayetteville,203065,2439.6820000000002,941.966,27.047,10.443,2466.729,952.409,35.971209,-94.218417,"Washington<br>Every 10,000 People 340.0 Not using Mask<br>Max of 353.0 People can get Infected",340.0,353.0
183,183,184,AR,05145,White,Searcy,77076,2680.833,1035.075,18.311,7.070,2699.1440000000002,1042.145,35.254721999999994,-91.753158,"White<br>Every 10,000 People 260.0 Not using Mask<br>Max of 30.0 People can get Infected",260.0,30.0
184,184,185,AR,05147,Woodruff,Augusta,7260,1519.781,586.7909999999999,18.708,7.223,1538.489,594.014,35.189071000000006,-91.24441800000001,"Woodruff<br>Every 10,000 People 590.0 Not using Mask<br>Max of 0.0 People can get Infected",590.0,0.0
185,185,186,AR,05149,Yell,"Dardanelle, Danville",22185,2408.647,929.9839999999999,48.880,18.873,2457.528,948.857,34.997713,-93.408303,"Yell<br>Every 10,000 People 1160.0 Not using Mask<br>Max of 6.0 People can get Infected",1160.0,6.0
186,186,187,CA,06001,Alameda,Oakland,1510271,1914.046,739.0169999999999,213.185,82.311,2127.231,821.328,37.648081,-121.91330400000001,"Alameda<br>Every 10,000 People 190.0 Not using Mask<br>Max of 292.0 People can get Infected",190.0,292.0
187,187,188,CA,06003,Alpine,Markleeville,1175,1912.2720000000002,738.332,12.557,4.848,1924.829,743.18,38.61761,-119.798999,"Alpine<br>Every 10,000 People 250.0 Not using Mask<br>Max of 0.0 People can get Infected",250.0,0.0
188,188,189,CA,06005,Amador,Jackson,38091,1539.963,594.5830000000001,29.457,11.373,1569.42,605.956,38.44355,-120.653856,"Amador<br>Every 10,000 People 450.0 Not using Mask<br>Max of 68.0 People can get Infected",450.0,68.0
189,189,190,CA,06007,Butte,Oroville,220000,4238.423,1636.464,105.326,40.667,4343.749,1677.131,39.665959,-121.601919,"Butte<br>Every 10,000 People 150.0 Not using Mask<br>Max of 171.0 People can get Infected",150.0,171.0
190,190,191,CA,06009,Calaveras,San Andreas,45578,2641.82,1020.012,43.810,16.915,2685.63,1036.927,38.187844,-120.55511499999999,"Calaveras<br>Every 10,000 People 450.0 Not using Mask<br>Max of 37.0 People can get Infected",450.0,37.0
191,191,192,CA,06011,Colusa,Colusa,21419,2980.3790000000004,1150.731,14.581,5.630,2994.96,1156.361,39.177739,-122.237563,"Colusa<br>Every 10,000 People 270.0 Not using Mask<br>Max of 5.0 People can get Infected",270.0,5.0
192,192,193,CA,06013,Contra Costa,Martinez,1049025,1854.269,715.937,227.485,87.833,2081.754,803.77,37.919478999999995,-121.95154299999999,"Contra Costa<br>Every 10,000 People 180.0 Not using Mask<br>Max of 466.0 People can get Infected",180.0,466.0
193,193,194,CA,06015,Del Norte,Crescent City,28610,2606.494,1006.373,578.526,223.370,3185.02,1229.743,41.749903,-123.980998,"Del Norte<br>Every 10,000 People 100.0 Not using Mask<br>Max of 0.0 People can get Infected",100.0,0.0
194,194,195,CA,06017,El Dorado,Placerville,181058,4423.397,1707.8829999999998,203.243,78.473,4626.64,1786.356,38.785532,-120.534398,"El Dorado<br>Every 10,000 People 280.0 Not using Mask<br>Max of 20.0 People can get Infected",280.0,20.0
195,195,196,CA,06019,Fresno,Fresno,930450,15431.126,5957.991,137.816,53.211,15568.942,6011.201999999999,36.761006,-119.655019,"Fresno<br>Every 10,000 People 210.0 Not using Mask<br>Max of 452.0 People can get Infected",210.0,452.0
196,196,197,CA,06021,Glenn,Willows,28122,3403.107,1313.9470000000001,33.750,13.031,3436.857,1326.9779999999998,39.602546000000004,-122.4017,"Glenn<br>Every 10,000 People 280.0 Not using Mask<br>Max of 5.0 People can get Infected",280.0,5.0
197,197,198,CA,06023,Humboldt,Eureka,134623,9241.045,3567.987,"1,254.256",484.271,10495.301000000001,4052.258,40.706672999999995,-123.92581799999999,"Humboldt<br>Every 10,000 People 420.0 Not using Mask<br>Max of 14.0 People can get Infected",420.0,14.0
198,198,199,CA,06025,Imperial,El Centro,174528,10817.353000000001,4176.603,790.248,305.116,11607.6,4481.719,33.040816,-115.355395,"Imperial<br>Every 10,000 People 10.0 Not using Mask<br>Max of 356.0 People can get Infected",10.0,356.0
199,199,200,CA,06027,Inyo,Independence,18546,26368.354,10180.879,119.208,46.026,26487.562,10226.905,36.561977,-117.403927,"Inyo<br>Every 10,000 People 330.0 Not using Mask<br>Max of 0.0 People can get Infected",330.0,0.0
200,200,201,CA,06029,Kern,Bakersfield,839631,21061.565,8131.916,79.577,30.725,21141.142000000003,8162.641,35.346629,-118.729506,"Kern<br>Every 10,000 People 220.0 Not using Mask<br>Max of 148.0 People can get Infected",220.0,148.0
201,201,202,CA,06031,Kings,Hanford,152982,3598.5820000000003,1389.42,5.469,2.111,3604.051,1391.531,36.072478000000004,-119.81553000000001,"Kings<br>Every 10,000 People 750.0 Not using Mask<br>Max of 613.0 People can get Infected",750.0,613.0
202,202,203,CA,06033,Lake,Lakeport,64665,3254.228,1256.464,188.962,72.959,3443.19,1329.4229999999998,39.094802,-122.746757,"Lake<br>Every 10,000 People 30.0 Not using Mask<br>Max of 12.0 People can get Infected",30.0,12.0
203,203,204,CA,06035,Lassen,Susanville,34895,11761.612,4541.184,463.441,178.935,12225.053,4720.119000000001,40.721089,-120.629931,"Lassen<br>Every 10,000 People 640.0 Not using Mask<br>Max of 8.0 People can get Infected",640.0,8.0
204,204,205,CA,06037,Los Angeles,Los Angeles,9818605,10509.87,4057.884,"1,795.013",693.058,12304.883,4750.942,34.196397999999995,-118.26186200000001,"Los Angeles<br>Every 10,000 People 210.0 Not using Mask<br>Max of 2196.0 People can get Infected",210.0,2196.0
205,205,206,CA,06039,Madera,Madera,150865,5534.983,2137.069,41.958,16.200,5576.94,2153.269,37.210039,-119.749852,"Madera<br>Every 10,000 People 190.0 Not using Mask<br>Max of 150.0 People can get Infected",190.0,150.0
206,206,207,CA,06041,Marin,San Rafael,252409,1347.586,520.306,797.420,307.886,2145.006,828.192,38.051817,-122.745974,"Marin<br>Every 10,000 People 110.0 Not using Mask<br>Max of 19.0 People can get Infected",110.0,19.0
207,207,208,CA,06043,Mariposa,Mariposa,18251,3752.417,1448.816,36.271,14.004,3788.688,1462.82,37.570034,-119.91286000000001,"Mariposa<br>Every 10,000 People 100.0 Not using Mask<br>Max of 0.0 People can get Infected",100.0,0.0
208,208,209,CA,06045,Mendocino,Ukiah,87841,9081.386,3506.343,962.953,371.798,10044.339,3878.1409999999996,39.432388,-123.442881,"Mendocino<br>Every 10,000 People 20.0 Not using Mask<br>Max of 30.0 People can get Infected",20.0,30.0
209,209,210,CA,06047,Merced,Merced,255793,5011.555,1934.9720000000002,112.760,43.537,5124.315,1978.509,37.194806,-120.722802,"Merced<br>Every 10,000 People 260.0 Not using Mask<br>Max of 117.0 People can get Infected",260.0,117.0
210,210,211,CA,06049,Modoc,Alturas,9686,10146.976999999999,3917.77,739.774,285.629,10886.752,4203.399,41.592919,-120.71837,"Modoc<br>Every 10,000 People 680.0 Not using Mask<br>Max of 7.0 People can get Infected",680.0,7.0
211,211,212,CA,06051,Mono,Bridgeport,14202,7896.826999999999,3048.982,214.695,82.894,8111.523,3131.8759999999997,37.915836,-118.87516699999999,"Mono<br>Every 10,000 People 110.0 Not using Mask<br>Max of 0.0 People can get Infected",110.0,0.0
212,212,213,CA,06053,Monterey,Salinas,415057,8496.703000000001,3280.595,"1,270.714",490.626,9767.417,3771.2209999999995,36.240107,-121.315573,"Monterey<br>Every 10,000 People 230.0 Not using Mask<br>Max of 192.0 People can get Infected",230.0,192.0
213,213,214,CA,06055,Napa,Napa,136484,1938.247,748.362,104.169,40.220,2042.4170000000001,788.582,38.507351,-122.32599499999999,"Napa<br>Every 10,000 People 170.0 Not using Mask<br>Max of 16.0 People can get Infected",170.0,16.0
214,214,215,CA,06057,Nevada,Nevada City,98764,2480.617,957.7719999999999,41.515,16.029,2522.132,973.801,39.295190999999996,-120.77344599999999,"Nevada<br>Every 10,000 People 30.0 Not using Mask<br>Max of 6.0 People can get Infected",30.0,6.0
215,215,216,CA,06059,Orange,Santa Ana,3010232,2047.5610000000001,790.568,407.917,157.498,2455.478,948.066,33.675686999999996,-117.777207,"Orange<br>Every 10,000 People 230.0 Not using Mask<br>Max of 285.0 People can get Infected",230.0,285.0
216,216,217,CA,06061,Placer,Auburn,348432,3644.136,1407.009,247.205,95.447,3891.341,1502.4560000000001,39.062032,-120.722718,"Placer<br>Every 10,000 People 120.0 Not using Mask<br>Max of 75.0 People can get Infected",120.0,75.0
217,217,218,CA,06063,Plumas,Quincy,20007,6612.351,2553.0429999999997,156.395,60.385,6768.746,2613.428,39.99517,-120.829516,"Plumas<br>Every 10,000 People 630.0 Not using Mask<br>Max of 0.0 People can get Infected",630.0,0.0
218,218,219,CA,06065,Riverside,Riverside,2189641,18664.697,7206.48,251.073,96.940,18915.77,7303.42,33.729828000000005,-116.00223899999999,"Riverside<br>Every 10,000 People 260.0 Not using Mask<br>Max of 443.0 People can get Infected",260.0,443.0
219,219,220,CA,06067,Sacramento,Sacramento,1418788,2498.416,964.6439999999999,76.077,29.374,2574.493,994.018,38.450010999999996,-121.340441,"Sacramento<br>Every 10,000 People 250.0 Not using Mask<br>Max of 482.0 People can get Infected",250.0,482.0
220,220,221,CA,06069,San Benito,Hollister,55269,3596.742,1388.71,4.555,1.759,3601.297,1390.469,36.610702,-121.085296,"San Benito<br>Every 10,000 People 180.0 Not using Mask<br>Max of 37.0 People can get Infected",180.0,37.0
221,221,222,CA,06071,San Bernardino,San Bernardino,2035210,51947.23,20056.938000000002,124.028,47.888,52071.258,20104.826,34.85722,-116.181197,"San Bernardino<br>Every 10,000 People 270.0 Not using Mask<br>Max of 0.0 People can get Infected",270.0,0.0
222,222,223,CA,06073,San Diego,San Diego,3095313,10895.121000000001,4206.63,826.348,319.055,11721.469,4525.685,33.023604,-116.776117,"San Diego<br>Every 10,000 People 170.0 Not using Mask<br>Max of 707.0 People can get Infected",170.0,707.0
223,223,224,CA,06075,San Francisco,San Francisco,805235,121.4,46.873000000000005,479.190,185.016,600.59,231.889,37.727239000000004,-123.032229,"San Francisco<br>Every 10,000 People 170.0 Not using Mask<br>Max of 92.0 People can get Infected",170.0,92.0
224,224,225,CA,06077,San Joaquin,Stockton,685306,3603.506,1391.3220000000001,91.109,35.177,3694.615,1426.499,37.935034,-121.27223700000002,"San Joaquin<br>Every 10,000 People 540.0 Not using Mask<br>Max of 321.0 People can get Infected",540.0,321.0
225,225,226,CA,06079,San Luis Obispo,San Luis Obispo,269637,8543.248,3298.567,820.975,316.980,9364.223,3615.547,35.385227,-120.44753999999999,"San Luis Obispo<br>Every 10,000 People 250.0 Not using Mask<br>Max of 63.0 People can get Infected",250.0,63.0
226,226,227,CA,06081,San Mateo,Redwood City,718451,1161.372,448.408,757.704,292.551,1919.076,740.959,37.414664,-122.37154199999999,"San Mateo<br>Every 10,000 People 160.0 Not using Mask<br>Max of 97.0 People can get Infected",160.0,97.0
227,227,228,CA,06083,Santa Barbara,Santa Barbara,423895,7083.838000000001,2735.085,"2,729.829","1,053.993",9813.667,3789.078,34.537378000000004,-120.03848500000001,"Santa Barbara<br>Every 10,000 People 150.0 Not using Mask<br>Max of 95.0 People can get Infected",150.0,95.0
228,228,229,CA,06085,Santa Clara,San Jose,1781642,3341.343,1290.1,36.175,13.967,3377.518,1304.067,37.220777000000005,-121.69062199999999,"Santa Clara<br>Every 10,000 People 150.0 Not using Mask<br>Max of 461.0 People can get Infected",150.0,461.0
229,229,230,CA,06087,Santa Cruz,Santa Cruz,262382,1152.986,445.17,419.569,161.996,1572.555,607.1659999999999,37.012488,-122.007205,"Santa Cruz<br>Every 10,000 People 80.0 Not using Mask<br>Max of 63.0 People can get Infected",80.0,63.0
230,230,231,CA,06089,Shasta,Redding,177223,9778.247,3775.402,186.531,72.020,9964.778,3847.422,40.760521999999995,-122.04355,"Shasta<br>Every 10,000 People 950.0 Not using Mask<br>Max of 5.0 People can get Infected",950.0,5.0
231,231,232,CA,06091,Sierra,Downieville,3240,2468.814,953.2139999999999,23.299,8.996,2492.113,962.21,39.576925,-120.521993,"Sierra<br>Every 10,000 People 1400.0 Not using Mask<br>Max of 0.0 People can get Infected",1400.0,0.0
232,232,233,CA,06093,Siskiyou,Yreka,44900,16259.652,6277.887,179.889,69.456,16439.542,6347.343000000001,41.587986,-122.53328700000002,"Siskiyou<br>Every 10,000 People 1320.0 Not using Mask<br>Max of 2.0 People can get Infected",1320.0,2.0
233,233,234,CA,06095,Solano,Fairfield,413344,2128.361,821.765,218.666,84.427,2347.027,906.192,38.267226,-121.939594,"Solano<br>Every 10,000 People 430.0 Not using Mask<br>Max of 62.0 People can get Infected",430.0,62.0
234,234,235,CA,06097,Sonoma,Santa Rosa,483878,4081.43,1575.849,497.530,192.098,4578.96,1767.9470000000001,38.532574,-122.945194,"Sonoma<br>Every 10,000 People 220.0 Not using Mask<br>Max of 0.0 People can get Infected",220.0,0.0
235,235,236,CA,06099,Stanislaus,Modesto,514453,3871.583,1494.8270000000002,51.437,19.860,3923.02,1514.6870000000001,37.562384,-121.002656,"Stanislaus<br>Every 10,000 People 320.0 Not using Mask<br>Max of 330.0 People can get Infected",320.0,330.0
236,236,237,CA,06101,Sutter,Yuba City,94737,1560.236,602.41,15.747,6.080,1575.983,608.49,39.035257,-121.702758,"Sutter<br>Every 10,000 People 580.0 Not using Mask<br>Max of 9.0 People can get Infected",580.0,9.0
237,237,238,CA,06103,Tehama,Red Bluff,63463,7639.71,2949.7090000000003,32.276,12.462,7671.986,2962.171,40.126156,-122.232276,"Tehama<br>Every 10,000 People 570.0 Not using Mask<br>Max of 16.0 People can get Infected",570.0,16.0
238,238,239,CA,06105,Trinity,Weaverville,13786,8234.23,3179.2540000000004,73.408,28.343,8307.638,3207.597,40.647724,-123.11440400000001,"Trinity<br>Every 10,000 People 810.0 Not using Mask<br>Max of 0.0 People can get Infected",810.0,0.0
239,239,240,CA,06107,Tulare,Visalia,442179,12494.658000000001,4824.215,37.392,14.437,12532.05,4838.652,36.230453000000004,-118.780542,"Tulare<br>Every 10,000 People 250.0 Not using Mask<br>Max of 195.0 People can get Infected",250.0,195.0
240,240,241,CA,06109,Tuolumne,Sonora,55365,5752.063,2220.884,138.684,53.546,5890.746,2274.43,38.021451,-119.964708,"Tuolumne<br>Every 10,000 People 80.0 Not using Mask<br>Max of 5.0 People can get Infected",80.0,5.0
241,241,242,CA,06111,Ventura,Ventura,823318,4773.692,1843.1329999999998,945.992,365.249,5719.684,2208.382,34.358742,-119.13314299999999,"Ventura<br>Every 10,000 People 240.0 Not using Mask<br>Max of 122.0 People can get Infected",240.0,122.0
242,242,243,CA,06113,Yolo,Woodland,200849,2628.032,1014.689,22.969,8.868,2651.002,1023.557,38.679268,-121.903178,"Yolo<br>Every 10,000 People 70.0 Not using Mask<br>Max of 40.0 People can get Infected",70.0,40.0
243,243,244,CA,06115,Yuba,Marysville,72155,1636.454,631.839,30.999,11.969,1667.453,643.808,39.270026,-121.34428,"Yuba<br>Every 10,000 People 570.0 Not using Mask<br>Max of 44.0 People can get Infected",570.0,44.0
244,244,245,CO,08001,Adams,Brighton,441603,3024.208,1167.653,42.070,16.243,3066.278,1183.896,39.874325,-104.331872,"Adams<br>Every 10,000 People 320.0 Not using Mask<br>Max of 73.0 People can get Infected",320.0,73.0
245,245,246,CO,08003,Alamosa,Alamosa,15445,1871.6370000000002,722.643,1.808,0.698,1873.445,723.341,37.568442,-105.78804099999999,"Alamosa<br>Every 10,000 People 520.0 Not using Mask<br>Max of 0.0 People can get Infected",520.0,0.0
246,246,247,CO,08005,Arapahoe,Littleton,572003,2067.07,798.1,19.004,7.337,2086.074,805.437,39.644632,-104.331733,"Arapahoe<br>Every 10,000 People 130.0 Not using Mask<br>Max of 55.0 People can get Infected",130.0,55.0
247,247,248,CO,08007,Archuleta,Pagosa Springs,12084,3496.938,1350.175,13.828,5.339,3510.765,1355.514,37.202395,-107.05086299999999,"Archuleta<br>Every 10,000 People 410.0 Not using Mask<br>Max of 0.0 People can get Infected",410.0,0.0
248,248,249,CO,08009,Baca,Springfield,3788,6617.334,2554.967,6.142,2.372,6623.476,2557.339,37.303144,-102.535457,"Baca<br>Every 10,000 People 1130.0 Not using Mask<br>Max of 0.0 People can get Infected",1130.0,0.0
249,249,250,CO,08011,Bent,Las Animas,6499,3918.292,1512.861,73.094,28.222,3991.386,1541.0829999999999,37.931891,-103.077584,"Bent<br>Every 10,000 People 330.0 Not using Mask<br>Max of 0.0 People can get Infected",330.0,0.0
250,250,251,CO,08013,Boulder,Boulder,294567,1881.08,726.289,36.469,14.081,1917.549,740.37,40.094826,-105.39838200000001,"Boulder<br>Every 10,000 People 80.0 Not using Mask<br>Max of 59.0 People can get Infected",80.0,59.0
251,251,252,CO,08014,Broomfield,Broomfield,55889,85.55799999999999,33.034,1.466,0.566,87.024,33.6,39.953383,-105.052125,"Broomfield<br>Every 10,000 People 180.0 Not using Mask<br>Max of 0.0 People can get Infected",180.0,0.0
252,252,253,CO,08015,Chaffee,Salida,17809,2624.702,1013.403,4.013,1.550,2628.716,1014.953,38.738246000000004,-106.31697199999999,"Chaffee<br>Every 10,000 People 380.0 Not using Mask<br>Max of 2.0 People can get Infected",380.0,2.0
253,253,254,CO,08017,Cheyenne,Cheyenne Wells,1836,4605.713,1778.276,8.166,3.153,4613.879,1781.4289999999999,38.835387,-102.604585,"Cheyenne<br>Every 10,000 People 160.0 Not using Mask<br>Max of 0.0 People can get Infected",160.0,0.0
254,254,255,CO,08019,Clear Creek,Georgetown,9088,1023.633,395.227,3.280,1.266,1026.913,396.49300000000005,39.689403000000006,-105.670791,"Clear Creek<br>Every 10,000 People 20.0 Not using Mask<br>Max of 0.0 People can get Infected",20.0,0.0
255,255,256,CO,08021,Conejos,Conejos,8256,3334.3259999999996,1287.391,9.235,3.566,3343.5609999999997,1290.9569999999999,37.213407000000004,-106.176447,"Conejos<br>Every 10,000 People 600.0 Not using Mask<br>Max of 0.0 People can get Infected",600.0,0.0
256,256,257,CO,08023,Costilla,San Luis,3524,3177.79,1226.952,8.829,3.409,3186.619,1230.361,37.277547,-105.42894,"Costilla<br>Every 10,000 People 340.0 Not using Mask<br>Max of 0.0 People can get Infected",340.0,0.0
257,257,258,CO,08025,Crowley,Ordway,5823,2039.411,787.421,33.430,12.908,2072.842,800.329,38.321956,-103.787562,"Crowley<br>Every 10,000 People 20.0 Not using Mask<br>Max of 0.0 People can get Infected",20.0,0.0
258,258,259,CO,08027,Custer,Westcliffe,4255,1913.031,738.625,3.365,1.299,1916.396,739.924,38.101994,-105.373515,"Custer<br>Every 10,000 People 170.0 Not using Mask<br>Max of 0.0 People can get Infected",170.0,0.0
259,259,260,CO,08029,Delta,Delta,30952,2957.897,1142.05,16.961,6.549,2974.8579999999997,1148.599,38.861756,-107.86475700000001,"Delta<br>Every 10,000 People 870.0 Not using Mask<br>Max of 5.0 People can get Infected",870.0,5.0
260,260,261,CO,08031,Denver,Denver,600158,396.269,153.0,4.225,1.631,400.494,154.631,39.761849,-104.880625,"Denver<br>Every 10,000 People 200.0 Not using Mask<br>Max of 80.0 People can get Infected",200.0,80.0
261,261,262,CO,08033,Dolores,Dove Creek,2064,2763.65,1067.0510000000002,2.716,1.049,2766.366,1068.1,37.747602,-108.530383,"Dolores<br>Every 10,000 People 520.0 Not using Mask<br>Max of 0.0 People can get Infected",520.0,0.0
262,262,263,CO,08035,Douglas,Castle Rock,285465,2176.232,840.248,6.789,2.621,2183.022,842.8689999999999,39.326435,-104.926199,"Douglas<br>Every 10,000 People 130.0 Not using Mask<br>Max of 51.0 People can get Infected",130.0,51.0
263,263,264,CO,08037,Eagle,Eagle,52197,4362.912,1684.53,18.806,7.261,4381.718,1691.7910000000002,39.630638,-106.692944,"Eagle<br>Every 10,000 People 80.0 Not using Mask<br>Max of 3.0 People can get Infected",80.0,3.0
264,264,265,CO,08039,Elbert,Colorado Springs,23086,4793.670999999999,1850.8470000000002,0.442,0.171,4794.113,1851.0179999999998,39.310817,-104.117928,"Elbert<br>Every 10,000 People 160.0 Not using Mask<br>Max of 5.0 People can get Infected",160.0,5.0
265,265,266,CO,08041,El Paso,Kiowa,622263,5508.39,2126.801,7.112,2.746,5515.501,2129.547,38.827383000000005,-104.527472,"El Paso<br>Every 10,000 People 310.0 Not using Mask<br>Max of 16.0 People can get Infected",310.0,16.0
266,266,267,CO,08043,Fremont,Cañon City,46824,3970.627,1533.068,2.235,0.863,3972.863,1533.931,38.455658,-105.421438,"Fremont<br>Every 10,000 People 60.0 Not using Mask<br>Max of 2.0 People can get Infected",60.0,2.0
267,267,268,CO,08045,Garfield,Glenwood Springs,56389,7634.154,2947.563,21.431,8.274,7655.584,2955.837,39.599352,-107.90978,"Garfield<br>Every 10,000 People 650.0 Not using Mask<br>Max of 16.0 People can get Infected",650.0,16.0
268,268,269,CO,08047,Gilpin,Central City,5441,388.22900000000004,149.89600000000002,0.942,0.364,389.171,150.26,39.861082,-105.528947,"Gilpin<br>Every 10,000 People 10.0 Not using Mask<br>Max of 0.0 People can get Infected",10.0,0.0
269,269,270,CO,08049,Grand,Hot Sulphur Springs,14843,4781.972,1846.33,60.250,23.263,4842.222,1869.5929999999998,40.123289,-106.095876,"Grand<br>Every 10,000 People 60.0 Not using Mask<br>Max of 0.0 People can get Infected",60.0,0.0
270,270,271,CO,08051,Gunnison,Gunnison,15324,8389.229,3239.1,53.172,20.530,8442.401,3259.63,38.669678999999995,-107.07810800000001,"Gunnison<br>Every 10,000 People 570.0 Not using Mask<br>Max of 3.0 People can get Infected",570.0,3.0
271,271,272,CO,08053,Hinsdale,Lake City,843,2893.6679999999997,1117.251,15.325,5.917,2908.992,1123.1680000000001,37.811625,-107.38340500000001,"Hinsdale<br>Every 10,000 People 430.0 Not using Mask<br>Max of 0.0 People can get Infected",430.0,0.0
272,272,273,CO,08055,Huerfano,Walsenburg,6711,4120.673,1591.001,5.792,2.236,4126.465,1593.237,37.687815,-104.959928,"Huerfano<br>Every 10,000 People 280.0 Not using Mask<br>Max of 0.0 People can get Infected",280.0,0.0
273,273,274,CO,08057,Jackson,Walden,1394,4179.523,1613.723,18.750,7.239,4198.273,1620.9620000000002,40.663432,-106.32924799999999,"Jackson<br>Every 10,000 People 210.0 Not using Mask<br>Max of 0.0 People can get Infected",210.0,0.0
274,274,275,CO,08059,Jefferson,Golden,534543,1979.29,764.2080000000001,25.446,9.825,2004.736,774.033,39.586459999999995,-105.24560100000001,"Jefferson<br>Every 10,000 People 280.0 Not using Mask<br>Max of 51.0 People can get Infected",280.0,51.0
275,275,276,CO,08061,Kiowa,Eads,1398,4578.496,1767.767,47.033,18.160,4625.529,1785.9270000000001,38.388465999999994,-102.75621,"Kiowa<br>Every 10,000 People 280.0 Not using Mask<br>Max of nan People can get Infected",280.0,
276,276,277,CO,08063,Kit Carson,Burlington,8270,5596.5019999999995,2160.822,2.252,0.869,5598.754,2161.6910000000003,39.30534,-102.603023,"Kit Carson<br>Every 10,000 People 240.0 Not using Mask<br>Max of 0.0 People can get Infected",240.0,0.0
277,277,278,CO,08065,Lake,Durango,7310,976.194,376.911,18.124,6.998,994.319,383.909,39.204316,-106.349696,"Lake<br>Every 10,000 People 20.0 Not using Mask<br>Max of 0.0 People can get Infected",20.0,0.0
278,278,279,CO,08067,La Plata,Leadville,51334,4382.463,1692.078,19.760,7.629,4402.223,1699.707,37.287366999999996,-107.83971799999999,"La Plata<br>Every 10,000 People 430.0 Not using Mask<br>Max of 0.0 People can get Infected",430.0,0.0
279,279,280,CO,08069,Larimer,Fort Collins,299630,6723.613,2596.002,98.295,37.952,6821.909000000001,2633.954,40.663090999999994,-105.48213100000001,"Larimer<br>Every 10,000 People 130.0 Not using Mask<br>Max of 58.0 People can get Infected",130.0,58.0
280,280,281,CO,08071,Las Animas,Trinidad,15507,12361.162,4772.6720000000005,6.930,2.676,12368.091999999999,4775.348,37.318831,-104.04411,"Las Animas<br>Every 10,000 People 520.0 Not using Mask<br>Max of 0.0 People can get Infected",520.0,0.0
281,281,282,CO,08073,Lincoln,Hugo,5467,6676.021,2577.626,22.781,8.796,6698.802,2586.422,38.99374,-103.50755500000001,"Lincoln<br>Every 10,000 People 130.0 Not using Mask<br>Max of 0.0 People can get Infected",130.0,0.0
282,282,283,CO,08075,Logan,Sterling,22709,4761.813,1838.547,16.364,6.318,4778.177,1844.865,40.728091,-103.090464,"Logan<br>Every 10,000 People 780.0 Not using Mask<br>Max of 5.0 People can get Infected",780.0,5.0
283,283,284,CO,08077,Mesa,Grand Junction,146723,8622.003,3328.974,31.467,12.149,8653.47,3341.123,39.019492,-108.46183700000002,"Mesa<br>Every 10,000 People 750.0 Not using Mask<br>Max of 19.0 People can get Infected",750.0,19.0
284,284,285,CO,08079,Mineral,Creede,712,2267.966,875.666,5.222,2.016,2273.188,877.682,37.651478000000004,-106.9323,"Mineral<br>Every 10,000 People 490.0 Not using Mask<br>Max of 0.0 People can get Infected",490.0,0.0
285,285,286,CO,08081,Moffat,Craig,13795,12285.065,4743.29,19.742,7.622,12304.806999999999,4750.912,40.573984,-108.204521,"Moffat<br>Every 10,000 People 410.0 Not using Mask<br>Max of 2.0 People can get Infected",410.0,2.0
286,286,287,CO,08083,Montezuma,Cortez,25535,5256.451,2029.527,27.517,10.624,5283.968000000001,2040.151,37.338025,-108.595786,"Montezuma<br>Every 10,000 People 570.0 Not using Mask<br>Max of 0.0 People can get Infected",570.0,0.0
287,287,288,CO,08085,Montrose,Montrose,41276,5803.3730000000005,2240.695,4.923,1.901,5808.295999999999,2242.596,38.413427,-108.263042,"Montrose<br>Every 10,000 People 850.0 Not using Mask<br>Max of 3.0 People can get Infected",850.0,3.0
288,288,289,CO,08087,Morgan,Fort Morgan,28159,3316.305,1280.433,34.474,13.310,3350.7790000000005,1293.743,40.262353999999995,-103.807092,"Morgan<br>Every 10,000 People 830.0 Not using Mask<br>Max of 2.0 People can get Infected",830.0,2.0
289,289,290,CO,08089,Otero,La Junta,18831,3268.465,1261.961,20.052,7.742,3288.518,1269.703,37.884170000000005,-103.72126,"Otero<br>Every 10,000 People 40.0 Not using Mask<br>Max of 0.0 People can get Infected",40.0,0.0
290,290,291,CO,08091,Ouray,Ouray,4436,1402.719,541.5930000000001,1.600,0.618,1404.318,542.211,38.1506,-107.767133,"Ouray<br>Every 10,000 People 600.0 Not using Mask<br>Max of 5.0 People can get Infected",600.0,5.0
291,291,292,CO,08093,Park,Fairplay,16206,5682.034000000001,2193.846,43.531,16.807,5725.565,2210.653,39.118914000000004,-105.717648,"Park<br>Every 10,000 People 210.0 Not using Mask<br>Max of 3.0 People can get Infected",210.0,3.0
292,292,293,CO,08095,Phillips,Holyoke,4442,1781.725,687.928,0.302,0.117,1782.027,688.045,40.594712,-102.345105,"Phillips<br>Every 10,000 People 500.0 Not using Mask<br>Max of 3.0 People can get Infected",500.0,3.0
293,293,294,CO,08097,Pitkin,Aspen,17148,2514.094,970.697,6.469,2.498,2520.564,973.195,39.217533,-106.915943,"Pitkin<br>Every 10,000 People 190.0 Not using Mask<br>Max of 3.0 People can get Infected",190.0,3.0
294,294,295,CO,08099,Prowers,Lamar,12551,4243.4220000000005,1638.395,15.353,5.928,4258.775,1644.3229999999999,37.958181,-102.392161,"Prowers<br>Every 10,000 People 790.0 Not using Mask<br>Max of 2.0 People can get Infected",790.0,2.0
295,295,296,CO,08101,Pueblo,Pueblo,159063,6179.981,2386.104,30.280,11.691,6210.2609999999995,2397.795,38.170658,-104.48989300000001,"Pueblo<br>Every 10,000 People 180.0 Not using Mask<br>Max of 16.0 People can get Infected",180.0,16.0
296,296,297,CO,08103,Rio Blanco,Meeker,6666,8342.179,3220.934,4.868,1.880,8347.046999999999,3222.8140000000003,39.972606,-108.20068500000001,"Rio Blanco<br>Every 10,000 People 1110.0 Not using Mask<br>Max of 0.0 People can get Infected",1110.0,0.0
297,297,298,CO,08105,Rio Grande,Del Norte,11982,2361.96,911.9580000000001,0.984,0.380,2362.944,912.3380000000001,37.485763,-106.45321399999999,"Rio Grande<br>Every 10,000 People 610.0 Not using Mask<br>Max of 0.0 People can get Infected",610.0,0.0
298,298,299,CO,08107,Routt,Steamboat Springs,23509,6117.619000000001,2362.026,15.826,6.110,6133.445,2368.136,40.48316,-106.985289,"Routt<br>Every 10,000 People 80.0 Not using Mask<br>Max of 0.0 People can get Infected",80.0,0.0
299,299,300,CO,08109,Saguache,Saguache,6108,8206.440999999999,3168.525,4.455,1.720,8210.895,3170.245,38.033952,-106.246675,"Saguache<br>Every 10,000 People 650.0 Not using Mask<br>Max of 0.0 People can get Infected",650.0,0.0
300,300,301,CO,08111,San Juan,Silverton,699,1003.5880000000001,387.48800000000006,2.036,0.786,1005.6239999999999,388.274,37.781075,-107.670257,"San Juan<br>Every 10,000 People 320.0 Not using Mask<br>Max of 0.0 People can get Infected",320.0,0.0
301,301,302,CO,08113,San Miguel,Telluride,7359,3332.308,1286.611,5.214,2.013,3337.522,1288.624,38.009374,-108.42732600000001,"San Miguel<br>Every 10,000 People 430.0 Not using Mask<br>Max of 2.0 People can get Infected",430.0,2.0
302,302,303,CO,08115,Sedgwick,Julesburg,2379,1419.4189999999999,548.0409999999999,3.531,1.363,1422.95,549.404,40.871567999999996,-102.355358,"Sedgwick<br>Every 10,000 People 650.0 Not using Mask<br>Max of 0.0 People can get Infected",650.0,0.0
303,303,304,CO,08117,Summit,Breckenridge,27994,1575.639,608.3580000000001,28.283,10.920,1603.922,619.278,39.621023,-106.137555,"Summit<br>Every 10,000 People 0.0 Not using Mask<br>Max of 2.0 People can get Infected",0.0,2.0
304,304,305,CO,08119,Teller,Cripple Creek,23350,1442.767,557.055,4.945,1.909,1447.7120000000002,558.964,38.871994,-105.182552,"Teller<br>Every 10,000 People 1050.0 Not using Mask<br>Max of 0.0 People can get Infected",1050.0,0.0
305,305,306,CO,08121,Washington,Akron,4814,6521.67,2518.031,15.207,5.872,6536.878000000001,2523.903,39.965413,-103.20960500000001,"Washington<br>Every 10,000 People 770.0 Not using Mask<br>Max of 0.0 People can get Infected",770.0,0.0
306,306,307,CO,08123,Weld,Greeley,252825,10326.899,3987.238,76.554,29.558,10403.453000000001,4016.796,40.555794,-104.383649,"Weld<br>Every 10,000 People 460.0 Not using Mask<br>Max of 36.0 People can get Infected",460.0,36.0
307,307,308,CO,08125,Yuma,Wray,10043,6123.78,2364.405,11.135,4.299,6134.915,2368.7039999999997,40.000631,-102.42264899999999,"Yuma<br>Every 10,000 People 380.0 Not using Mask<br>Max of 0.0 People can get Infected",380.0,0.0
308,308,309,CT,09001,Fairfield ,Bridgeport ,916829,1618.4560000000001,624.89,549.162,212.033,2167.619,836.923,41.228103000000004,-73.36675699999999,"Fairfield <br>Every 10,000 People 270.0 Not using Mask<br>Max of 56.0 People can get Infected",270.0,56.0
309,309,310,CT,09003,Hartford ,Hartford ,894014,1903.892,735.097,40.213,15.527,1944.105,750.6239999999999,41.806053000000006,-72.732916,"Hartford <br>Every 10,000 People 150.0 Not using Mask<br>Max of 58.0 People can get Infected",150.0,58.0
310,310,311,CT,09005,Litchfield ,Litchfield ,189927,2384.239,920.56,62.166,24.002,2446.405,944.562,41.791897,-73.235428,"Litchfield <br>Every 10,000 People 170.0 Not using Mask<br>Max of 11.0 People can get Infected",170.0,11.0
311,311,312,CT,09007,Middlesex ,Middletown ,165676,956.4860000000001,369.301,180.684,69.762,1137.17,439.06300000000005,41.434525,-72.524227,"Middlesex <br>Every 10,000 People 30.0 Not using Mask<br>Max of 23.0 People can get Infected",30.0,23.0
312,312,313,CT,09009,New Haven ,New Haven ,862477,1565.6629999999998,604.506,667.053,257.551,2232.716,862.057,41.349717,-72.900204,"New Haven <br>Every 10,000 People 230.0 Not using Mask<br>Max of 47.0 People can get Infected",230.0,47.0
313,313,314,CT,09011,New London ,New London ,274055,1722.026,664.878,276.666,106.821,1998.692,771.699,41.478629999999995,-72.103452,"New London <br>Every 10,000 People 250.0 Not using Mask<br>Max of 34.0 People can get Infected",250.0,34.0
314,314,315,CT,09013,Tolland ,Rockville ,152691,1062.448,410.214,17.698,6.833,1080.147,417.04699999999997,41.858076000000004,-72.340977,"Tolland <br>Every 10,000 People 80.0 Not using Mask<br>Max of 5.0 People can get Infected",80.0,5.0
315,315,316,CT,09015,Windham ,Willimantic ,118428,1328.43,512.91,22.092,8.530,1350.523,521.44,41.824999,-71.990702,"Windham <br>Every 10,000 People 220.0 Not using Mask<br>Max of 5.0 People can get Infected",220.0,5.0
316,316,317,DE,10001,Kent,Dover,162310,1518.1960000000001,586.179,549.471,212.152,2067.667,798.331,39.097088,-75.50298199999999,"Kent<br>Every 10,000 People 260.0 Not using Mask<br>Max of 36.0 People can get Infected",260.0,36.0
317,317,318,DE,10003,New Castle,Wilmington,538479,1104.075,426.286,175.386,67.717,1279.461,494.00300000000004,39.575915,-75.644132,"New Castle<br>Every 10,000 People 270.0 Not using Mask<br>Max of 86.0 People can get Infected",270.0,86.0
318,318,319,DE,10005,Sussex,Georgetown,197145,2424.433,936.079,674.205,260.312,3098.638,1196.391,38.677510999999996,-75.335495,"Sussex<br>Every 10,000 People 50.0 Not using Mask<br>Max of 30.0 People can get Infected",50.0,30.0
319,319,320,DC,11001,District of Columbia ,Washington ,601723,158.115,61.048,18.885,7.292,177.0,68.34,38.904149,-77.017094,"District of Columbia <br>Every 10,000 People 120.0 Not using Mask<br>Max of 80.0 People can get Infected",120.0,80.0
320,320,321,FL,12001,Alachua,Gainesville,247336,2266.292,875.02,242.911,93.788,2509.202,968.808,29.67574,-82.357221,"Alachua<br>Every 10,000 People 10.0 Not using Mask<br>Max of 100.0 People can get Infected",10.0,100.0
321,321,322,FL,12003,Baker,Macclenny,27115,1515.741,585.231,9.686,3.740,1525.4270000000001,588.971,30.324441999999998,-82.302284,"Baker<br>Every 10,000 People 870.0 Not using Mask<br>Max of 11.0 People can get Infected",870.0,11.0
322,322,323,FL,12005,Bay,Panama City,168852,1964.401,758.459,711.453,274.694,2675.8540000000003,1033.153,30.237563,-85.631348,"Bay<br>Every 10,000 People 650.0 Not using Mask<br>Max of 28.0 People can get Infected",650.0,28.0
323,323,324,FL,12007,Bradford,Starke,28520,761.357,293.962,16.905,6.527,778.262,300.48900000000003,29.946934000000002,-82.16679599999999,"Bradford<br>Every 10,000 People 1060.0 Not using Mask<br>Max of 49.0 People can get Infected",1060.0,49.0
324,324,325,FL,12009,Brevard,Titusville,543376,2630.558,1015.664,"1,402.041",541.331,4032.599,1556.995,28.298276,-80.700384,"Brevard<br>Every 10,000 People 680.0 Not using Mask<br>Max of 106.0 People can get Infected",680.0,106.0
325,325,326,FL,12011,Broward,Fort Lauderdale,1748066,3133.329,1209.785,292.869,113.077,3426.198,1322.862,26.19352,-80.476658,"Broward<br>Every 10,000 People 260.0 Not using Mask<br>Max of 384.0 People can get Infected",260.0,384.0
326,326,327,FL,12013,Calhoun,Blountstown,14625,1469.389,567.3340000000001,18.075,6.979,1487.464,574.313,30.388801,-85.197916,"Calhoun<br>Every 10,000 People 340.0 Not using Mask<br>Max of 12.0 People can get Infected",340.0,12.0
327,327,328,FL,12015,Charlotte,Punta Gorda,159978,1761.914,680.279,461.075,178.022,2222.989,858.301,26.868826000000002,-81.94085799999999,"Charlotte<br>Every 10,000 People 510.0 Not using Mask<br>Max of 28.0 People can get Infected",510.0,28.0
328,328,329,FL,12017,Citrus,Inverness,141236,1506.586,581.696,496.236,191.598,2002.8229999999999,773.294,28.843628000000002,-82.524796,"Citrus<br>Every 10,000 People 900.0 Not using Mask<br>Max of 105.0 People can get Infected",900.0,105.0
329,329,330,FL,12019,Clay,Green Cove Springs,190865,1565.286,604.36,101.496,39.188,1666.7820000000002,643.548,29.987115999999997,-81.858147,"Clay<br>Every 10,000 People 550.0 Not using Mask<br>Max of 82.0 People can get Infected",550.0,82.0
330,330,331,FL,12021,Collier,East Naples,321520,5175.6359999999995,1998.3239999999998,794.325,306.691,5969.9619999999995,2305.015,26.118713,-81.40088399999999,"Collier<br>Every 10,000 People 400.0 Not using Mask<br>Max of 62.0 People can get Infected",400.0,62.0
331,331,332,FL,12023,Columbia,Lake City,67531,2065.708,797.574,9.723,3.754,2075.43,801.328,30.221304999999997,-82.623127,"Columbia<br>Every 10,000 People 470.0 Not using Mask<br>Max of 23.0 People can get Infected",470.0,23.0
332,332,333,FL,12027,DeSoto,Arcadia,34862,1649.976,637.059,6.275,2.423,1656.25,639.482,27.190580999999998,-81.806253,"DeSoto<br>Every 10,000 People 230.0 Not using Mask<br>Max of 0.0 People can get Infected",230.0,0.0
333,333,334,FL,12029,Dixie,Cross City,16422,1826.079,705.053,410.764,158.597,2236.843,863.65,29.580899,-83.195666,"Dixie<br>Every 10,000 People 710.0 Not using Mask<br>Max of 19.0 People can get Infected",710.0,19.0
334,334,335,FL,12031,Duval,Jacksonville,864263,1974.068,762.192,404.713,156.260,2378.781,918.452,30.335245,-81.648113,"Duval<br>Every 10,000 People 490.0 Not using Mask<br>Max of 256.0 People can get Infected",490.0,256.0
335,335,336,FL,12033,Escambia,Pensacola,297619,1700.227,656.461,565.247,218.243,2265.474,874.704,30.611664,-87.33904,"Escambia<br>Every 10,000 People 190.0 Not using Mask<br>Max of 90.0 People can get Infected",190.0,90.0
336,336,337,FL,12035,Flagler,Bunnell,95696,1257.338,485.461,221.091,85.364,1478.4289999999999,570.825,29.474894,-81.286362,"Flagler<br>Every 10,000 People 790.0 Not using Mask<br>Max of 42.0 People can get Infected",790.0,42.0
337,337,338,FL,12037,Franklin,Apalachicola,11549,1384.931,534.725,"1,273.676",491.769,2658.607,1026.494,29.810176000000002,-84.799174,"Franklin<br>Every 10,000 People 220.0 Not using Mask<br>Max of 3.0 People can get Infected",220.0,3.0
338,338,339,FL,12039,Gadsden,Quincy,46389,1337.293,516.332,31.588,12.196,1368.881,528.528,30.57917,-84.612783,"Gadsden<br>Every 10,000 People 600.0 Not using Mask<br>Max of 42.0 People can get Infected",600.0,42.0
339,339,340,FL,12041,Gilchrist,Trenton,16939,905.659,349.67699999999996,14.406,5.562,920.064,355.23900000000003,29.723456,-82.795801,"Gilchrist<br>Every 10,000 People 160.0 Not using Mask<br>Max of 3.0 People can get Infected",160.0,3.0
340,340,341,FL,12043,Glades,Moore Haven,12884,2087.554,806.0089999999999,468.371,180.839,2555.925,986.8480000000001,26.95481,-81.19082,"Glades<br>Every 10,000 People 470.0 Not using Mask<br>Max of 3.0 People can get Infected",470.0,3.0
341,341,342,FL,12045,Gulf,Port St. Joe,15863,1460.785,564.012,496.109,191.549,1956.894,755.561,29.907257,-85.256537,"Gulf<br>Every 10,000 People 460.0 Not using Mask<br>Max of 3.0 People can get Infected",460.0,3.0
342,342,343,FL,12047,Hamilton,Jasper,14799,1330.711,513.79,13.638,5.266,1344.349,519.056,30.491102,-82.951049,"Hamilton<br>Every 10,000 People 1010.0 Not using Mask<br>Max of 3.0 People can get Infected",1010.0,3.0
343,343,344,FL,12049,Hardee,Wauchula,27731,1651.85,637.783,1.440,0.556,1653.289,638.339,27.492846000000004,-81.82158000000001,"Hardee<br>Every 10,000 People 1140.0 Not using Mask<br>Max of 6.0 People can get Infected",1140.0,6.0
344,344,345,FL,12051,Hendry,LaBelle,39140,2985.6090000000004,1152.75,96.465,37.246,3082.075,1189.996,26.539340000000003,-81.151584,"Hendry<br>Every 10,000 People 460.0 Not using Mask<br>Max of 6.0 People can get Infected",460.0,6.0
345,345,346,FL,12053,Hernando,Brooksville,172778,1223.869,472.539,301.689,116.483,1525.558,589.0219999999999,28.567911,-82.464835,"Hernando<br>Every 10,000 People 900.0 Not using Mask<br>Max of 33.0 People can get Infected",900.0,33.0
346,346,347,FL,12055,Highlands,Sebring,98786,2633.02,1016.615,231.596,89.420,2864.616,1106.035,27.342627,-81.340921,"Highlands<br>Every 10,000 People 250.0 Not using Mask<br>Max of 30.0 People can get Infected",250.0,30.0
347,347,348,FL,12057,Hillsborough,Tampa,1229226,2642.341,1020.2139999999999,635.973,245.551,3278.3140000000003,1265.765,27.90659,-82.349568,"Hillsborough<br>Every 10,000 People 230.0 Not using Mask<br>Max of 250.0 People can get Infected",230.0,250.0
348,348,349,FL,12059,Holmes,Bonifay,19927,1240.028,478.777,26.599,10.270,1266.626,489.04699999999997,30.866221999999997,-85.81295899999999,"Holmes<br>Every 10,000 People 1700.0 Not using Mask<br>Max of 33.0 People can get Infected",1700.0,33.0
349,349,350,FL,12061,Indian River,Vero Beach,138028,1302.432,502.87199999999996,295.606,114.134,1598.0379999999998,617.006,27.700638,-80.574803,"Indian River<br>Every 10,000 People 540.0 Not using Mask<br>Max of 20.0 People can get Infected",540.0,20.0
350,350,351,FL,12063,Jackson,Marianna,49746,2376.987,917.76,95.322,36.804,2472.31,954.564,30.787812,-85.210374,"Jackson<br>Every 10,000 People 640.0 Not using Mask<br>Max of 27.0 People can get Infected",640.0,27.0
351,351,352,FL,12065,Jefferson,Monticello,14761,1549.059,598.095,99.559,38.440,1648.618,636.535,30.424558,-83.89085899999999,"Jefferson<br>Every 10,000 People 190.0 Not using Mask<br>Max of 6.0 People can get Infected",190.0,6.0
352,352,353,FL,12067,Lafayette,Mayo,8870,1407.4279999999999,543.411,11.646,4.497,1419.075,547.908,29.990066,-83.17851,"Lafayette<br>Every 10,000 People 1020.0 Not using Mask<br>Max of 5.0 People can get Infected",1020.0,5.0
353,353,354,FL,12069,Lake,Tavares,297052,2430.396,938.3810000000001,566.127,218.583,2996.5229999999997,1156.964,28.764113000000002,-81.712282,"Lake<br>Every 10,000 People 470.0 Not using Mask<br>Max of 95.0 People can get Infected",470.0,95.0
354,354,355,FL,12071,Lee,Fort Myers,618754,2031.879,784.513,"1,108.380",427.948,3140.26,1212.461,26.552134000000002,-81.89225,"Lee<br>Every 10,000 People 520.0 Not using Mask<br>Max of 90.0 People can get Infected",520.0,90.0
355,355,356,FL,12073,Leon,Tallahassee,275487,1727.139,666.852,90.487,34.937,1817.626,701.789,30.45931,-84.2778,"Leon<br>Every 10,000 People 510.0 Not using Mask<br>Max of 641.0 People can get Infected",510.0,641.0
356,356,357,FL,12075,Levy,Bronson,40801,2896.139,1118.2060000000001,762.981,294.589,3659.1209999999996,1412.795,29.284409000000004,-82.78348299999999,"Levy<br>Every 10,000 People 170.0 Not using Mask<br>Max of 5.0 People can get Infected",170.0,5.0
357,357,358,FL,12077,Liberty,Bristol,8365,2164.095,835.562,19.583,7.561,2183.678,843.123,30.259849,-84.868581,"Liberty<br>Every 10,000 People 220.0 Not using Mask<br>Max of 6.0 People can get Infected",220.0,6.0
358,358,359,FL,12079,Madison,Madison,19224,1802.4979999999998,695.948,51.114,19.735,1853.612,715.683,30.447228000000003,-83.470437,"Madison<br>Every 10,000 People 1640.0 Not using Mask<br>Max of 17.0 People can get Infected",1640.0,17.0
359,359,360,FL,12081,Manatee,Bradenton,322833,1924.182,742.931,387.845,149.748,2312.027,892.679,27.481385999999997,-82.36578399999999,"Manatee<br>Every 10,000 People 740.0 Not using Mask<br>Max of 69.0 People can get Infected",740.0,69.0
360,360,361,FL,12083,Marion,Ocala,331298,4103.956,1584.546,202.185,78.064,4306.141,1662.61,29.202804999999998,-82.0431,"Marion<br>Every 10,000 People 460.0 Not using Mask<br>Max of 98.0 People can get Infected",460.0,98.0
361,361,362,FL,12085,Martin,Stuart,146318,1407.565,543.464,542.252,209.365,1949.817,752.829,27.079953999999997,-80.398211,"Martin<br>Every 10,000 People 270.0 Not using Mask<br>Max of 25.0 People can get Infected",270.0,25.0
362,362,363,FL,12086,Miami-Dade,Miami,2496435,4915.061,1897.7160000000001,"1,381.673",533.467,6296.734,2431.183,25.610494,-80.499045,"Miami-Dade<br>Every 10,000 People 320.0 Not using Mask<br>Max of 766.0 People can get Infected",320.0,766.0
363,363,364,FL,12087,Monroe,Key West,73090,2546.689,983.2819999999999,"7,133.454","2,754.242",9680.143,3737.5240000000003,25.601043,-81.206777,"Monroe<br>Every 10,000 People 70.0 Not using Mask<br>Max of 2.0 People can get Infected",70.0,2.0
364,364,365,FL,12089,Nassau,Fernandina Beach,73314,1679.9679999999998,648.639,200.159,77.282,1880.126,725.921,30.605926,-81.76492900000001,"Nassau<br>Every 10,000 People 900.0 Not using Mask<br>Max of 28.0 People can get Infected",900.0,28.0
365,365,366,FL,12091,Okaloosa,Crestview,180822,2409.3289999999997,930.247,393.241,151.831,2802.57,1082.078,30.665858,-86.59419399999999,"Okaloosa<br>Every 10,000 People 910.0 Not using Mask<br>Max of 78.0 People can get Infected",910.0,78.0
366,366,367,FL,12093,Okeechobee,Okeechobee,39996,1991.463,768.908,318.565,122.999,2310.028,891.9069999999999,27.385592,-80.887388,"Okeechobee<br>Every 10,000 People 160.0 Not using Mask<br>Max of 6.0 People can get Infected",160.0,6.0
367,367,368,FL,12095,Orange,Orlando,1145956,2339.87,903.429,258.561,99.831,2598.431,1003.26,28.514435,-81.323295,"Orange<br>Every 10,000 People 200.0 Not using Mask<br>Max of 248.0 People can get Infected",200.0,248.0
368,368,369,FL,12097,Osceola,Kissimmee,268685,3438.086,1327.453,462.192,178.453,3900.278,1505.906,28.059027,-81.139312,"Osceola<br>Every 10,000 People 250.0 Not using Mask<br>Max of 100.0 People can get Infected",250.0,100.0
369,369,370,FL,12099,Palm Beach,West Palm Beach,1320134,5101.663,1969.763,"1,070.302",413.246,6171.965,2383.009,26.645763,-80.448673,"Palm Beach<br>Every 10,000 People 300.0 Not using Mask<br>Max of 186.0 People can get Infected",300.0,186.0
370,370,371,FL,12101,Pasco,Dade City,464697,1934.4260000000002,746.8860000000001,314.859,121.568,2249.285,868.454,28.302024,-82.45570699999999,"Pasco<br>Every 10,000 People 270.0 Not using Mask<br>Max of 50.0 People can get Infected",270.0,50.0
371,371,372,FL,12103,Pinellas,Clearwater,916542,709.1360000000001,273.79900000000004,865.906,334.328,1575.0420000000001,608.127,27.903121999999996,-82.739518,"Pinellas<br>Every 10,000 People 250.0 Not using Mask<br>Max of 128.0 People can get Infected",250.0,128.0
372,372,373,FL,12105,Polk,Bartow,602095,4656.376,1797.8370000000002,550.926,212.714,5207.302,2010.5510000000002,27.953115000000004,-81.69278299999999,"Polk<br>Every 10,000 People 500.0 Not using Mask<br>Max of 231.0 People can get Infected",500.0,231.0
373,373,374,FL,12107,Putnam,Palatka,74364,1884.533,727.622,257.184,99.299,2141.717,826.921,29.606006,-81.740894,"Putnam<br>Every 10,000 People 680.0 Not using Mask<br>Max of 17.0 People can get Infected",680.0,17.0
374,374,375,FL,12109,St. Johns,Milton,190039,1555.69,600.655,572.051,220.870,2127.74,821.525,29.890593,-81.383914,"St. Johns<br>Every 10,000 People 470.0 Not using Mask<br>Max of 78.0 People can get Infected",470.0,78.0
375,375,376,FL,12111,St. Lucie,Sarasota,277789,1481.281,571.9259999999999,300.907,116.181,1782.1879999999999,688.107,27.380775,-80.443364,"St. Lucie<br>Every 10,000 People 770.0 Not using Mask<br>Max of 64.0 People can get Infected",770.0,64.0
376,376,377,FL,12113,Santa Rosa,Sanford,151372,2620.044,1011.605,420.026,162.173,3040.0690000000004,1173.778,30.703633,-87.014255,"Santa Rosa<br>Every 10,000 People 470.0 Not using Mask<br>Max of 51.0 People can get Infected",470.0,51.0
377,377,378,FL,12115,Sarasota,St. Augustine,379448,1439.691,555.868,438.941,169.476,1878.632,725.3439999999999,27.184386,-82.365835,"Sarasota<br>Every 10,000 People 170.0 Not using Mask<br>Max of 51.0 People can get Infected",170.0,51.0
378,378,379,FL,12117,Seminole,Fort Pierce,422718,800.8789999999999,309.221,93.428,36.073,894.308,345.29400000000004,28.690078999999997,-81.13198,"Seminole<br>Every 10,000 People 370.0 Not using Mask<br>Max of 92.0 People can get Infected",370.0,92.0
379,379,380,FL,12119,Sumter,Bushnell,93420,1416.549,546.933,85.192,32.893,1501.741,579.826,28.714294,-82.074715,"Sumter<br>Every 10,000 People 370.0 Not using Mask<br>Max of 66.0 People can get Infected",370.0,66.0
380,380,381,FL,12121,Suwannee,Live Oak,41551,1783.3410000000001,688.552,9.594,3.704,1792.935,692.2560000000001,30.189244,-82.992754,"Suwannee<br>Every 10,000 People 1050.0 Not using Mask<br>Max of 30.0 People can get Infected",1050.0,30.0
381,381,382,FL,12123,Taylor,Perry,22570,2702.1479999999997,1043.305,489.238,188.896,3191.386,1232.201,30.016942999999998,-83.616417,"Taylor<br>Every 10,000 People 1030.0 Not using Mask<br>Max of 3.0 People can get Infected",1030.0,3.0
382,382,383,FL,12125,Union,Lake Butler,15535,630.806,243.55599999999998,16.050,6.197,646.856,249.753,30.05428,-82.366918,"Union<br>Every 10,000 People 440.0 Not using Mask<br>Max of 19.0 People can get Infected",440.0,19.0
383,383,384,FL,12127,Volusia,DeLand,494593,2851.659,1101.032,858.331,331.404,3709.99,1432.4360000000001,29.057616999999997,-81.161813,"Volusia<br>Every 10,000 People 350.0 Not using Mask<br>Max of 92.0 People can get Infected",350.0,92.0
384,384,385,FL,12129,Wakulla,Crawfordville,30776,1570.6170000000002,606.419,334.904,129.307,1905.521,735.7260000000001,30.140378000000002,-84.375136,"Wakulla<br>Every 10,000 People 320.0 Not using Mask<br>Max of 8.0 People can get Infected",320.0,8.0
385,385,386,FL,12131,Walton,De Funiak Springs,55043,2687.4359999999997,1037.625,523.100,201.970,3210.5359999999996,1239.595,30.631210999999997,-86.176614,"Walton<br>Every 10,000 People 920.0 Not using Mask<br>Max of 14.0 People can get Infected",920.0,14.0
386,386,387,FL,12133,Washington,Chipley,24896,1509.454,582.803,85.861,33.151,1595.3139999999999,615.9540000000001,30.602217,-85.662797,"Washington<br>Every 10,000 People 1380.0 Not using Mask<br>Max of 2.0 People can get Infected",1380.0,2.0
387,387,388,GA,13001,Appling,Baxley,18236,1313.3339999999998,507.08099999999996,13.417,5.180,1326.751,512.261,31.739712,-82.290103,"Appling<br>Every 10,000 People 850.0 Not using Mask<br>Max of 22.0 People can get Infected",850.0,22.0
388,388,389,GA,13003,Atkinson,Pearson,8375,878.9939999999999,339.38199999999995,13.343,5.152,892.3380000000001,344.534,31.300562,-82.883614,"Atkinson<br>Every 10,000 People 590.0 Not using Mask<br>Max of 3.0 People can get Infected",590.0,3.0
389,389,390,GA,13005,Bacon,Alma,11096,669.7080000000001,258.57599999999996,70.569,27.247,740.2769999999999,285.823,31.563327,-82.38785899999999,"Bacon<br>Every 10,000 People 710.0 Not using Mask<br>Max of 9.0 People can get Infected",710.0,9.0
390,390,391,GA,13007,Baker,Newton,3451,885.63,341.944,18.634,7.195,904.2639999999999,349.139,31.319622,-84.45485699999999,"Baker<br>Every 10,000 People 270.0 Not using Mask<br>Max of 0.0 People can get Infected",270.0,0.0
391,391,392,GA,13009,Baldwin,Milledgeville,45720,667.812,257.844,24.779,9.567,692.591,267.411,33.059532,-83.255362,"Baldwin<br>Every 10,000 People 200.0 Not using Mask<br>Max of 51.0 People can get Infected",200.0,51.0
392,392,393,GA,13011,Banks,Homer,18395,601.112,232.09099999999998,4.651,1.796,605.763,233.887,34.351921999999995,-83.498441,"Banks<br>Every 10,000 People 1360.0 Not using Mask<br>Max of 7.0 People can get Infected",1360.0,7.0
393,393,394,GA,13013,Barrow,Winder,69367,415.199,160.309,6.818,2.632,422.01599999999996,162.941,33.992009,-83.712303,"Barrow<br>Every 10,000 People 630.0 Not using Mask<br>Max of 56.0 People can get Infected",630.0,56.0
394,394,395,GA,13015,Bartow,Cartersville,100157,1190.214,459.54400000000004,27.374,10.569,1217.588,470.11300000000006,34.240918,-84.838188,"Bartow<br>Every 10,000 People 2150.0 Not using Mask<br>Max of 33.0 People can get Infected",2150.0,33.0
395,395,396,GA,13017,Ben Hill,Fitzgerald,17634,647.809,250.12099999999998,9.807,3.787,657.6160000000001,253.908,31.740776,-83.14719000000001,"Ben Hill<br>Every 10,000 People 1290.0 Not using Mask<br>Max of 3.0 People can get Infected",1290.0,3.0
396,396,397,GA,13019,Berrien,Nashville,19286,1170.4080000000001,451.897,15.503,5.986,1185.911,457.88300000000004,31.274308,-83.23190600000001,"Berrien<br>Every 10,000 People 730.0 Not using Mask<br>Max of 5.0 People can get Infected",730.0,5.0
397,397,398,GA,13021,Bibb,Macon,155547,646.88,249.762,14.514,5.604,661.3939999999999,255.36599999999999,32.808844,-83.694193,"Bibb<br>Every 10,000 People 430.0 Not using Mask<br>Max of 54.0 People can get Infected",430.0,54.0
398,398,399,GA,13023,Bleckley,Cochran,13063,559.1,215.87,8.447,3.262,567.548,219.132,32.435403,-83.331717,"Bleckley<br>Every 10,000 People 890.0 Not using Mask<br>Max of 40.0 People can get Infected",890.0,40.0
399,399,400,GA,13025,Brantley,Nahunta,18411,1145.713,442.36199999999997,12.536,4.840,1158.249,447.202,31.197334,-81.982978,"Brantley<br>Every 10,000 People 470.0 Not using Mask<br>Max of 5.0 People can get Infected",470.0,5.0
400,400,401,GA,13027,Brooks,Quitman,16243,1276.982,493.046,12.315,4.755,1289.297,497.801,30.833696000000003,-83.588971,"Brooks<br>Every 10,000 People 920.0 Not using Mask<br>Max of 0.0 People can get Infected",920.0,0.0
401,401,402,GA,13029,Bryan,Pembroke,30233,1129.1480000000001,435.967,47.887,18.489,1177.035,454.45599999999996,32.017969,-81.43854300000001,"Bryan<br>Every 10,000 People 330.0 Not using Mask<br>Max of 16.0 People can get Infected",330.0,16.0
402,402,403,GA,13031,Bulloch,Statesboro,70217,1742.568,672.809,40.963,15.816,1783.5320000000002,688.625,32.393408,-81.74381,"Bulloch<br>Every 10,000 People 530.0 Not using Mask<br>Max of 260.0 People can get Infected",530.0,260.0
403,403,404,GA,13033,Burke,Waynesboro,23316,2141.8360000000002,826.9680000000001,20.759,8.015,2162.595,834.9830000000001,33.063736999999996,-82.00389,"Burke<br>Every 10,000 People 1050.0 Not using Mask<br>Max of 30.0 People can get Infected",1050.0,30.0
404,404,405,GA,13035,Butts,Jackson,23655,477.57599999999996,184.393,9.448,3.648,487.024,188.041,33.290355,-83.958221,"Butts<br>Every 10,000 People 1250.0 Not using Mask<br>Max of 0.0 People can get Infected",1250.0,0.0
405,405,406,GA,13037,Calhoun,Morgan,6694,726.1469999999999,280.367,8.316,3.211,734.4630000000001,283.578,31.521278999999996,-84.62629,"Calhoun<br>Every 10,000 People 130.0 Not using Mask<br>Max of 2.0 People can get Infected",130.0,2.0
406,406,407,GA,13039,Camden,Woodbine,50513,1587.7279999999998,613.025,437.293,168.840,2025.021,781.865,30.916358000000002,-81.636516,"Camden<br>Every 10,000 People 1360.0 Not using Mask<br>Max of 33.0 People can get Infected",1360.0,33.0
407,407,408,GA,13043,Candler,Metter,10998,629.481,243.044,15.058,5.814,644.539,248.858,32.403985999999996,-82.071446,"Candler<br>Every 10,000 People 370.0 Not using Mask<br>Max of 5.0 People can get Infected",370.0,5.0
408,408,409,GA,13045,Carroll,Carrollton,110527,1292.6,499.07599999999996,12.328,4.760,1304.928,503.836,33.582237,-85.080527,"Carroll<br>Every 10,000 People 890.0 Not using Mask<br>Max of 50.0 People can get Infected",890.0,50.0
409,409,410,GA,13047,Catoosa,Ringgold,63942,419.991,162.159,0.780,0.301,420.77099999999996,162.46,34.899392999999996,-85.137353,"Catoosa<br>Every 10,000 People 1430.0 Not using Mask<br>Max of 28.0 People can get Infected",1430.0,28.0
410,410,411,GA,13049,Charlton,Folkston,12171,2003.5539999999999,773.576,22.786,8.798,2026.34,782.3739999999999,30.779904,-82.13964399999999,"Charlton<br>Every 10,000 People 650.0 Not using Mask<br>Max of 0.0 People can get Infected",650.0,0.0
411,411,412,GA,13051,Chatham,Savannah,265128,1104.4660000000001,426.43699999999995,533.086,205.826,1637.5510000000002,632.263,31.974756,-81.091768,"Chatham<br>Every 10,000 People 350.0 Not using Mask<br>Max of 66.0 People can get Infected",350.0,66.0
412,412,413,GA,13053,Chattahoochee,Cusseta,11267,644.224,248.736,6.293,2.430,650.516,251.166,32.347445,-84.788021,"Chattahoochee<br>Every 10,000 People 610.0 Not using Mask<br>Max of 94.0 People can get Infected",610.0,94.0
413,413,414,GA,13055,Chattooga,Summerville,26015,811.5419999999999,313.33799999999997,0.571,0.220,812.113,313.558,34.474179,-85.34528900000001,"Chattooga<br>Every 10,000 People 1160.0 Not using Mask<br>Max of 12.0 People can get Infected",1160.0,12.0
414,414,415,GA,13057,Cherokee,Canton,214346,1092.13,421.67400000000004,32.975,12.732,1125.104,434.406,34.244316999999995,-84.47505699999999,"Cherokee<br>Every 10,000 People 490.0 Not using Mask<br>Max of 91.0 People can get Infected",490.0,91.0
415,415,416,GA,13059,Clarke,Athens,116714,308.728,119.2,4.752,1.835,313.48,121.035,33.952234000000004,-83.36713,"Clarke<br>Every 10,000 People 540.0 Not using Mask<br>Max of 206.0 People can get Infected",540.0,206.0
416,416,417,GA,13061,Clay,Fort Gaines,3183,506.036,195.38099999999997,56.599,21.853,562.635,217.234,31.619831,-84.992583,"Clay<br>Every 10,000 People 280.0 Not using Mask<br>Max of 2.0 People can get Infected",280.0,2.0
417,417,418,GA,13063,Clayton,Jonesboro,259424,366.664,141.57,7.153,2.762,373.81699999999995,144.332,33.552242,-84.412977,"Clayton<br>Every 10,000 People 380.0 Not using Mask<br>Max of 34.0 People can get Infected",380.0,34.0
418,418,419,GA,13065,Clinch,Homerville,6798,2072.567,800.222,61.566,23.771,2134.132,823.993,30.917653,-82.702614,"Clinch<br>Every 10,000 People 600.0 Not using Mask<br>Max of 2.0 People can get Infected",600.0,2.0
419,419,420,GA,13067,Cobb,Marietta,688078,879.428,339.54900000000004,12.868,4.969,892.297,344.51800000000003,33.93994,-84.574166,"Cobb<br>Every 10,000 People 390.0 Not using Mask<br>Max of 162.0 People can get Infected",390.0,162.0
420,420,421,GA,13069,Coffee,Douglas,42356,1489.495,575.097,71.362,27.553,1560.8570000000002,602.65,31.549245000000003,-82.844938,"Coffee<br>Every 10,000 People 850.0 Not using Mask<br>Max of 25.0 People can get Infected",850.0,25.0
421,421,422,GA,13071,Colquitt,Moultrie,45498,1409.351,544.153,32.338,12.486,1441.6889999999999,556.639,31.189758,-83.769741,"Colquitt<br>Every 10,000 People 1080.0 Not using Mask<br>Max of 22.0 People can get Infected",1080.0,22.0
422,422,423,GA,13073,Columbia,Appling,124053,751.329,290.09,45.363,17.515,796.692,307.605,33.550556,-82.25134200000001,"Columbia<br>Every 10,000 People 610.0 Not using Mask<br>Max of 41.0 People can get Infected",610.0,41.0
423,423,424,GA,13075,Cook,Adel,17212,588.346,227.162,15.647,6.041,603.993,233.203,31.152935,-83.429552,"Cook<br>Every 10,000 People 980.0 Not using Mask<br>Max of 3.0 People can get Infected",980.0,3.0
424,424,425,GA,13077,Coweta,Newnan,127317,1141.905,440.892,12.755,4.925,1154.66,445.81699999999995,33.352897,-84.76213800000001,"Coweta<br>Every 10,000 People 1050.0 Not using Mask<br>Max of 26.0 People can get Infected",1050.0,26.0
425,425,426,GA,13079,Crawford,Knoxville,12630,841.456,324.888,4.055,1.565,845.5110000000001,326.453,32.709446,-83.979182,"Crawford<br>Every 10,000 People 570.0 Not using Mask<br>Max of 2.0 People can get Infected",570.0,2.0
426,426,427,GA,13081,Crisp,Cordele,23439,705.988,272.58299999999997,21.672,8.368,727.66,280.95099999999996,31.914753,-83.753338,"Crisp<br>Every 10,000 People 1190.0 Not using Mask<br>Max of 0.0 People can get Infected",1190.0,0.0
427,427,428,GA,13083,Dade,Trenton,16633,450.60900000000004,173.981,0.463,0.179,451.07300000000004,174.16,34.852424,-85.506201,"Dade<br>Every 10,000 People 1280.0 Not using Mask<br>Max of 7.0 People can get Infected",1280.0,7.0
428,428,429,GA,13085,Dawson,Dawsonville,22330,546.0459999999999,210.83,9.269,3.579,555.315,214.40900000000002,34.442842,-84.173284,"Dawson<br>Every 10,000 People 490.0 Not using Mask<br>Max of 19.0 People can get Infected",490.0,19.0
429,429,430,GA,13087,Decatur,Bainbridge,27842,1546.585,597.14,67.413,26.028,1613.997,623.168,30.877961,-84.577744,"Decatur<br>Every 10,000 People 930.0 Not using Mask<br>Max of 8.0 People can get Infected",930.0,8.0
